{
  "version": 0.6,
  "generator": "Overpass API 0.7.62.11 87bfad18",
  "osm3s": {
    "timestamp_osm_base": "2026-04-15T13:14:48Z",
    "timestamp_areas_base": "2026-04-15T00:53:14Z",
    "copyright": "The data included in this document is from www.openstreetmap.org. The data is made available under ODbL."
  },
  "elements": [

{
  "type": "node",
  "id": 388565621,
  "lat": 5.6068220,
  "lon": -0.2317013,
  "tags": {
    "amenity": "doctors",
    "healthcare": "doctor",
    "name": "Hobats Clinic"
  }
},
{
  "type": "node",
  "id": 784183691,
  "lat": 5.0964895,
  "lon": -1.3366499,
  "tags": {
    "amenity": "pharmacy",
    "healthcare": "pharmacy"
  }
},
{
  "type": "node",
  "id": 1191436208,
  "lat": 5.6057445,
  "lon": -0.1882256,
  "tags": {
    "amenity": "pharmacy",
    "healthcare": "pharmacy",
    "name": "Worldview Pharmacy"
  }
},
{
  "type": "node",
  "id": 1250323231,
  "lat": 5.6166671,
  "lon": -0.1819970,
  "tags": {
    "amenity": "pharmacy",
    "healthcare": "pharmacy",
    "name": "Jinlet Pharmacy"
  }
},
{
  "type": "node",
  "id": 1251736937,
  "lat": 5.6136399,
  "lon": -0.1959567,
  "tags": {
    "amenity": "pharmacy",
    "dispensing": "Pharmacy"
  }
},
{
  "type": "node",
  "id": 1251736946,
  "lat": 5.6119229,
  "lon": -0.2032496,
  "tags": {
    "amenity": "pharmacy",
    "name": "Bedita Pharmacy Limited"
  }
},
{
  "type": "node",
  "id": 1251736948,
  "lat": 5.6122056,
  "lon": -0.2008376,
  "tags": {
    "amenity": "pharmacy",
    "name": "Familycare Pharmacy"
  }
},
{
  "type": "node",
  "id": 1251736962,
  "lat": 5.6139320,
  "lon": -0.2098381,
  "tags": {
    "amenity": "clinic",
    "healthcare": "clinic",
    "name": "Chiropractic & Wellness Centres"
  }
},
{
  "type": "node",
  "id": 1251736965,
  "lat": 5.6137230,
  "lon": -0.1970549,
  "tags": {
    "amenity": "pharmacy",
    "dispensing": "Planstyle Pharmacy"
  }
},
{
  "type": "node",
  "id": 1270558809,
  "lat": 5.5922646,
  "lon": -0.2082311,
  "tags": {
    "amenity": "doctors",
    "healthcare": "doctor",
    "name": "Sape Agbo Memorial Hospital"
  }
},
{
  "type": "node",
  "id": 1314917857,
  "lat": 5.5688120,
  "lon": -0.1702220,
  "tags": {
    "amenity": "doctors",
    "designation": "Family And General Practice",
    "emergency": "no",
    "healthcare": "doctor",
    "name": "Labone Clinic"
  }
},
{
  "type": "node",
  "id": 1356937858,
  "lat": 5.6383278,
  "lon": -0.1708890,
  "tags": {
    "amenity": "pharmacy",
    "name": "Health Shop Mini Mart"
  }
},
{
  "type": "node",
  "id": 1356937919,
  "lat": 5.5743634,
  "lon": -0.2074883,
  "tags": {
    "amenity": "doctors",
    "name": "St. Bernhard Eye Clinic"
  }
},
{
  "type": "node",
  "id": 1364922558,
  "lat": 5.5725719,
  "lon": -0.2224166,
  "tags": {
    "amenity": "pharmacy",
    "healthcare": "pharmacy",
    "name": "Jinlet Pharmacy"
  }
},
{
  "type": "node",
  "id": 1368374851,
  "lat": 5.5720758,
  "lon": -0.2025512,
  "tags": {
    "amenity": "clinic",
    "healthcare": "clinic",
    "name": "Dua Clinic"
  }
},
{
  "type": "node",
  "id": 1378720189,
  "lat": 4.9304764,
  "lon": -1.7802097,
  "tags": {
    "amenity": "clinic",
    "name": "Dohamm Clinic Limited"
  }
},
{
  "type": "node",
  "id": 1385353948,
  "lat": 5.6124096,
  "lon": -0.2220452,
  "tags": {
    "amenity": "doctors",
    "healthcare": "doctor",
    "name": "Eye Link Clinic"
  }
},
{
  "type": "node",
  "id": 1405374124,
  "lat": 5.5590844,
  "lon": -0.2156089,
  "tags": {
    "addr:street": "Official Street",
    "amenity": "clinic",
    "check_date": "2025-04-12",
    "name": "Odorna Medical Center",
    "opening_hours": "24/7"
  }
},
{
  "type": "node",
  "id": 1426161179,
  "lat": 5.6167345,
  "lon": -0.1923825,
  "tags": {
    "amenity": "doctors",
    "name": "OMNI Healthcare"
  }
},
{
  "type": "node",
  "id": 1590950161,
  "lat": 5.6010349,
  "lon": -0.1198714,
  "tags": {
    "amenity": "pharmacy",
    "healthcare": "pharmacy",
    "name": "Pro-Life Pharmacy"
  }
},
{
  "type": "node",
  "id": 1728032224,
  "lat": 5.5662728,
  "lon": -0.2095995,
  "tags": {
    "addr:city": "Castle Road,Accra",
    "addr:street": "Farrar Avenue",
    "amenity": "clinic",
    "contact:phone": "0302 222 6430",
    "healthcare": "clinic;doctor",
    "name": "Adabraka clinic",
    "opening_hours": "24/7",
    "operator:type": "private"
  }
},
{
  "type": "node",
  "id": 1728032238,
  "lat": 5.5680370,
  "lon": -0.2124418,
  "tags": {
    "addr:city": "Accra",
    "addr:street": "Faanofaa Avenue",
    "amenity": "doctors",
    "contact:phone": "0302 222 402/ 0302 243342",
    "healthcare": "clinic;doctor",
    "name": "Iran Clinic",
    "opening_hours": "24/7",
    "operator:type": "private"
  }
},
{
  "type": "node",
  "id": 1762080645,
  "lat": 5.6865054,
  "lon": -0.0397182,
  "tags": {
    "amenity": "clinic",
    "healthcare": "clinic",
    "name": "Ashaiman Poly Clinic"
  }
},
{
  "type": "node",
  "id": 1775866931,
  "lat": 5.5770902,
  "lon": -0.1735902,
  "tags": {
    "amenity": "pharmacy",
    "dispensing": "Health solution pharmacy",
    "healthcare": "pharmacy",
    "name": "Health Solutions"
  }
},
{
  "type": "node",
  "id": 1775872487,
  "lat": 5.5739343,
  "lon": -0.1823604,
  "tags": {
    "amenity": "doctors",
    "check_date": "2023-05-16",
    "healthcare": "doctor",
    "name": "Kumcji Hospital",
    "payment:cash": "yes"
  }
},
{
  "type": "node",
  "id": 1791548336,
  "lat": 9.4019248,
  "lon": -0.8508627,
  "tags": {
    "amenity": "hospital",
    "check_date": "2026-03-17",
    "emergency": "yes",
    "healthcare": "hospital",
    "name": "Tamale West Hospital"
  }
},
{
  "type": "node",
  "id": 1799109618,
  "lat": 9.3956423,
  "lon": -0.8247706,
  "tags": {
    "addr:street": "Hospital Road",
    "amenity": "pharmacy",
    "healthcare": "pharmacy",
    "name": "Multi Pavum"
  }
},
{
  "type": "node",
  "id": 1801462419,
  "lat": 5.6364024,
  "lon": -0.1720217,
  "tags": {
    "amenity": "doctors"
  }
},
{
  "type": "node",
  "id": 1813427817,
  "lat": 9.4070156,
  "lon": -0.8413305,
  "tags": {
    "amenity": "pharmacy",
    "healthcare": "pharmacy"
  }
},
{
  "type": "node",
  "id": 1814485423,
  "lat": 9.4054438,
  "lon": -0.8414646,
  "tags": {
    "amenity": "pharmacy",
    "healthcare": "pharmacy",
    "name": "Riky Pharmacy"
  }
},
{
  "type": "node",
  "id": 1815412130,
  "lat": 9.4278930,
  "lon": -0.8421459,
  "tags": {
    "amenity": "pharmacy",
    "dispensing": "yes",
    "healthcare": "pharmacy",
    "name": "Slava Pharmacy"
  }
},
{
  "type": "node",
  "id": 1827548153,
  "lat": 5.6015884,
  "lon": -0.1928943,
  "tags": {
    "amenity": "clinic",
    "healthcare": "clinic",
    "name": "Medlab",
    "opening_hours": "Mo-Fr 07:00-18:00; Sa 09:00-12:00"
  }
},
{
  "type": "node",
  "id": 1877213265,
  "lat": 9.3983044,
  "lon": -0.8436615,
  "tags": {
    "amenity": "pharmacy",
    "healthcare": "pharmacy",
    "name": "Chamalt Pharmacy",
    "name:it": "Chamalt"
  }
},
{
  "type": "node",
  "id": 1880284528,
  "lat": 9.4549391,
  "lon": -0.8618576,
  "tags": {
    "amenity": "pharmacy",
    "healthcare": "pharmacy"
  }
},
{
  "type": "node",
  "id": 1880289111,
  "lat": 9.4445146,
  "lon": -0.8439082,
  "tags": {
    "amenity": "pharmacy",
    "dispensing": "yes",
    "healthcare": "pharmacy",
    "name": "Ethical Pharmacy"
  }
},
{
  "type": "node",
  "id": 1919300432,
  "lat": 10.5726862,
  "lon": -1.1926680,
  "tags": {
    "address": "chansa",
    "amenity": "clinic",
    "catchment_population": "2522",
    "ele": "194.0",
    "grid_proximity": "grid_further_500_m",
    "health_facility:beds": "0",
    "health_facility:patients_per_day": "7",
    "health_facility_type": "CHPS",
    "name": "Chansa CHPS",
    "owner": "gov_nat_fed",
    "power_supply": "solar",
    "source": "MVP,Columbia University",
    "source:date": "2012-02-15",
    "source:ele": "gps"
  }
},
{
  "type": "node",
  "id": 1919300445,
  "lat": 10.3275910,
  "lon": -1.2466083,
  "tags": {
    "address": "Gbedembilisi road",
    "amenity": "clinic",
    "catchment_population": "860",
    "ele": "144.60000610351563",
    "grid_proximity": "grid_further_500_m",
    "health_facility:beds": "1",
    "health_facility:patients_per_day": "5",
    "health_facility_type": "CHPS",
    "name": "Gbedembilisi CHPS",
    "owner": "gov_lower_level",
    "power_supply": "solar",
    "source": "MVP,Columbia University",
    "source:date": "2012-02-14",
    "source:ele": "gps"
  }
},
{
  "type": "node",
  "id": 1919300483,
  "lat": 10.4801880,
  "lon": -1.2284805,
  "tags": {
    "address": "xxx",
    "amenity": "clinic",
    "catchment_population": "3214",
    "ele": "193.3000030517578",
    "grid_proximity": "grid_further_500_m",
    "health_facility:beds": "0",
    "health_facility:patients_per_day": "15",
    "health_facility_type": "CHPS",
    "healthcare": "clinic",
    "insurance:health": "public",
    "name": "Uwasa CHPS",
    "owner": "gov_lower_level",
    "power_supply": "solar",
    "source": "MVP,Columbia University",
    "source:date": "2012-02-13",
    "source:ele": "gps"
  }
},
{
  "type": "node",
  "id": 1919300503,
  "lat": 10.3687564,
  "lon": -1.3360766,
  "tags": {
    "address": "Maabe",
    "amenity": "clinic",
    "catchment_population": "1580",
    "ele": "178.0",
    "grid_proximity": "grid_further_500_m",
    "health_facility:beds": "0",
    "health_facility:patients_per_day": "7",
    "health_facility_type": "CHPS",
    "name": "Wiesi CHPS",
    "owner": "gov_lower_level",
    "power_supply": "solar",
    "source": "MVP,Columbia University",
    "source:date": "2012-02-14",
    "source:ele": "gps"
  }
},
{
  "type": "node",
  "id": 2026403682,
  "lat": 5.5302943,
  "lon": -0.2627300,
  "tags": {
    "amenity": "pharmacy",
    "dispensing": "yes",
    "name": "Day and Night Pharmacy",
    "opening_hours": "Mo- Su 08:00-23:00"
  }
},
{
  "type": "node",
  "id": 2026403692,
  "lat": 5.5289082,
  "lon": -0.2643292,
  "tags": {
    "amenity": "pharmacy",
    "dispensing": "yes",
    "name": "Westlife Pharmacy",
    "opening_hours": "Mo-Su 08:00-23:00"
  }
},
{
  "type": "node",
  "id": 2148020987,
  "lat": 5.6354204,
  "lon": -0.2153604,
  "tags": {
    "amenity": "hospital",
    "healthcare": "hospital",
    "name": "Lapaz Community Hospital",
    "operator": "Lapaz Community Hospital"
  }
},
{
  "type": "node",
  "id": 2148021017,
  "lat": 5.6392218,
  "lon": -0.2143179,
  "tags": {
    "amenity": "doctors"
  }
},
{
  "type": "node",
  "id": 2151944590,
  "lat": 5.5657782,
  "lon": -0.1848220,
  "tags": {
    "amenity": "doctors",
    "name": "Nuffield Clinic Orthopaedic"
  }
},
{
  "type": "node",
  "id": 2151944602,
  "lat": 5.5751092,
  "lon": -0.1351977,
  "tags": {
    "amenity": "doctors",
    "healthcare": "doctor"
  }
},
{
  "type": "node",
  "id": 2152138368,
  "lat": 5.7061476,
  "lon": -0.1468088,
  "tags": {
    "amenity": "doctors",
    "name": "Crystal Eye Clinic"
  }
},
{
  "type": "node",
  "id": 2152138381,
  "lat": 5.6700657,
  "lon": -0.1600853,
  "tags": {
    "amenity": "doctors",
    "name": "Peace Clinic"
  }
},
{
  "type": "node",
  "id": 2154259341,
  "lat": 5.7250381,
  "lon": -0.1148981,
  "tags": {
    "amenity": "hospital",
    "check_date": "2026-03-04",
    "healthcare": "hospital",
    "name": "Sweden Ghana Medical Centre"
  }
},
{
  "type": "node",
  "id": 2189771725,
  "lat": 6.9822811,
  "lon": -2.3873600,
  "tags": {
    "amenity": "pharmacy"
  }
},
{
  "type": "node",
  "id": 2278887839,
  "lat": 10.8494616,
  "lon": -0.1778384,
  "tags": {
    "amenity": "doctors",
    "healthcare": "doctor",
    "name": "Garu Health Centre"
  }
},
{
  "type": "node",
  "id": 2285918231,
  "lat": 9.4146636,
  "lon": -0.9839179,
  "tags": {
    "amenity": "doctors"
  }
},
{
  "type": "node",
  "id": 2306715205,
  "lat": 10.8903945,
  "lon": -1.0877145,
  "tags": {
    "amenity": "pharmacy",
    "contact:phone": "+233 24 981 4388",
    "dispensing": "yes",
    "electricity": "other",
    "emergency": "yes",
    "healthcare": "pharmacy",
    "name": "Bencyn Pharmacy",
    "opening_hours": "Mo-Sa 00:00-23:55",
    "operational_status": "operational",
    "operator:type": "private",
    "water_source": "powered_pump"
  }
},
{
  "type": "node",
  "id": 2319464976,
  "lat": 6.6200096,
  "lon": 0.4712475,
  "tags": {
    "amenity": "pharmacy",
    "dispensing": "no",
    "healthcare": "pharmacy",
    "name": "Ryt Pharmacy Ho"
  }
},
{
  "type": "node",
  "id": 2509276964,
  "lat": 9.4250318,
  "lon": -0.8566550,
  "tags": {
    "addr:street": "Education rigde road",
    "amenity": "pharmacy",
    "healthcare": "pharmacy",
    "name": "Ginaphama Pharmacy"
  }
},
{
  "type": "node",
  "id": 2509337553,
  "lat": 9.4274108,
  "lon": -0.8571890,
  "tags": {
    "amenity": "pharmacy",
    "healthcare": "pharmacy",
    "name": "Rose Aryiretey Licenced Chemical Seller",
    "opening_hours": "Mo-Sa 08:00-22:00"
  }
},
{
  "type": "node",
  "id": 2521014504,
  "lat": 9.6806869,
  "lon": -0.8300194,
  "tags": {
    "amenity": "clinic",
    "emergency": "no",
    "name": "Pong-Tamale CHPS Clinic"
  }
},
{
  "type": "node",
  "id": 2574744949,
  "lat": 5.5592037,
  "lon": -0.2652905,
  "tags": {
    "addr:housenumber": "250",
    "addr:street": "Dansoman Roundabout",
    "amenity": "pharmacy",
    "name": "Unicom Chemist Limited",
    "phone": "0302301548"
  }
},
{
  "type": "node",
  "id": 2644149766,
  "lat": 5.5609961,
  "lon": -0.1824485,
  "tags": {
    "amenity": "clinic",
    "healthcare": "clinic",
    "name": "Ramona Clinic",
    "name:it": "Ramona"
  }
},
{
  "type": "node",
  "id": 2815197868,
  "lat": 5.6047937,
  "lon": -0.2586139,
  "tags": {
    "amenity": "pharmacy",
    "healthcare": "pharmacy",
    "name": "New Discovery Pharmacy"
  }
},
{
  "type": "node",
  "id": 2826655019,
  "lat": 5.6176593,
  "lon": -0.1788767,
  "tags": {
    "addr:city": "Accra",
    "addr:street": "Kofi Atta Annan Street",
    "amenity": "doctors",
    "healthcare": "birthing_centre",
    "healthcare:speciality": "gynaecology",
    "name": "Airport Womens Hospital",
    "opening_hours": "24/7",
    "operator:type": "private"
  }
},
{
  "type": "node",
  "id": 2967647199,
  "lat": 6.1301195,
  "lon": 0.7902956,
  "tags": {
    "amenity": "pharmacy"
  }
},
{
  "type": "node",
  "id": 3069906805,
  "lat": 5.5636685,
  "lon": -0.1984106,
  "tags": {
    "addr:city": "North Ridge, Accra",
    "addr:housenumber": "1",
    "addr:street": "Examination Road",
    "amenity": "doctors",
    "healthcare": "doctor",
    "name": "Regional Medical Office of the Embassy of the Federal Republic of Germany",
    "opening_hours": "Mo-Fr 08:00-13:00",
    "phone": "+233 302 21 10 00;+233 302 22 13 11"
  }
},
{
  "type": "node",
  "id": 3073535099,
  "lat": 5.5698108,
  "lon": -0.2393468,
  "tags": {
    "amenity": "pharmacy",
    "shop": "chemist"
  }
},
{
  "type": "node",
  "id": 3073611741,
  "lat": 5.5678949,
  "lon": -0.2430072,
  "tags": {
    "amenity": "pharmacy",
    "name": "Nectar Pharmacy"
  }
},
{
  "type": "node",
  "id": 3109291372,
  "lat": 5.5665780,
  "lon": -0.2150059,
  "tags": {
    "addr:street": "Kwame Nkrumah Avenue",
    "amenity": "pharmacy",
    "healthcare": "pharmacy"
  }
},
{
  "type": "node",
  "id": 3123797169,
  "lat": 5.5940423,
  "lon": -0.2426638,
  "tags": {
    "amenity": "doctors",
    "name": "Better Hearing Clinic Ltd.",
    "source": "GPS"
  }
},
{
  "type": "node",
  "id": 3229726703,
  "lat": 5.5684141,
  "lon": -0.1743606,
  "tags": {
    "amenity": "pharmacy",
    "dispensing": "no",
    "name": "Medipoint",
    "opening_hours": "Mo-Sa 07:00-22:00; Su 12:00-22:00"
  }
},
{
  "type": "node",
  "id": 3319457082,
  "lat": 6.1139666,
  "lon": 1.1948600,
  "tags": {
    "amenity": "pharmacy",
    "name": "Elikplim Pharmacy"
  }
},
{
  "type": "node",
  "id": 3372168837,
  "lat": 5.2991043,
  "lon": -2.0005696,
  "tags": {
    "amenity": "clinic",
    "name": "UMaT Clinic",
    "opening_hours": "Mo-Fr 08:00-17:00"
  }
},
{
  "type": "node",
  "id": 3496565026,
  "lat": 6.3422742,
  "lon": -0.4811583,
  "tags": {
    "amenity": "doctors",
    "name": "Osino Health Centre"
  }
},
{
  "type": "node",
  "id": 3499968761,
  "lat": 5.3048435,
  "lon": -1.9921114,
  "tags": {
    "addr:street": "Bank Road",
    "amenity": "pharmacy",
    "name": "Brakatu Pharmacy",
    "opening_hours": "Mo-Su 08:00-21:00",
    "source": "survey"
  }
},
{
  "type": "node",
  "id": 3506704799,
  "lat": 5.6089501,
  "lon": -0.1868010,
  "tags": {
    "amenity": "doctors",
    "healthcare": "doctor",
    "name": "Healthnet Airpoort Mediacl Centre"
  }
},
{
  "type": "node",
  "id": 3506704821,
  "lat": 5.6080010,
  "lon": -0.1880233,
  "tags": {
    "amenity": "doctors",
    "healthcare": "doctor",
    "name": "St. Andrews Clinic"
  }
},
{
  "type": "node",
  "id": 3621666091,
  "lat": 5.5746838,
  "lon": -0.2379998,
  "tags": {
    "amenity": "pharmacy",
    "branch": "Okay Balm",
    "check_date": "2023-09-29",
    "dispensing": "yes",
    "drive_through": "no",
    "name": "Flexta Pharmacy",
    "opening_hours": "Mo-Sa 08:00-20:00",
    "payment:cash": "yes",
    "source": "local knowledge",
    "wheelchair": "limited"
  }
},
{
  "type": "node",
  "id": 3646705787,
  "lat": 6.1007712,
  "lon": 1.1480010,
  "tags": {
    "amenity": "pharmacy",
    "name": "Jowis Chemicals"
  }
},
{
  "type": "node",
  "id": 3655509799,
  "lat": 6.1178137,
  "lon": 1.1806674,
  "tags": {
    "amenity": "pharmacy",
    "name": "Dzigbordi Chemical Store",
    "source": "survey"
  }
},
{
  "type": "node",
  "id": 3655509800,
  "lat": 6.1203543,
  "lon": 1.1805651,
  "tags": {
    "amenity": "pharmacy",
    "name": "Verdi Pharmacy",
    "source": "survey"
  }
},
{
  "type": "node",
  "id": 3665190017,
  "lat": 5.5607496,
  "lon": -0.1870794,
  "tags": {
    "amenity": "doctors",
    "healthcare": "doctor",
    "name": "Trust Specialist Hospital"
  }
},
{
  "type": "node",
  "id": 3706858382,
  "lat": 5.6140306,
  "lon": -0.1776537,
  "tags": {
    "amenity": "doctors",
    "healthcare": "doctor",
    "name": "St. Lukes Clinic",
    "opening_hours": "Mo-Fr 08:30-20:00; Sa,Su 08:00-14:30; PH off"
  }
},
{
  "type": "node",
  "id": 3720696845,
  "lat": 5.6133632,
  "lon": -0.2153329,
  "tags": {
    "amenity": "doctors",
    "healthcare": "doctor",
    "name": "Accra Physiotherapy & Sports Injury Clinic"
  }
},
{
  "type": "node",
  "id": 3731302543,
  "lat": 5.6041598,
  "lon": -0.2189110,
  "tags": {
    "amenity": "doctors",
    "healthcare": "doctor",
    "name": "Citadel Clinic"
  }
},
{
  "type": "node",
  "id": 3780928018,
  "lat": 5.1388490,
  "lon": -1.6632347,
  "tags": {
    "amenity": "clinic"
  }
},
{
  "type": "node",
  "id": 3783842540,
  "lat": 4.8976961,
  "lon": -1.7639354,
  "tags": {
    "addr:city": "Takoradi",
    "amenity": "clinic",
    "name": "Rabbito Clinic"
  }
},
{
  "type": "node",
  "id": 3793281505,
  "lat": 5.2820633,
  "lon": -2.0016527,
  "tags": {
    "amenity": "pharmacy",
    "name": "Owass Pharmacy",
    "phone": "+233279552255"
  }
},
{
  "type": "node",
  "id": 3802489640,
  "lat": 6.2393408,
  "lon": 0.0922965,
  "tags": {
    "amenity": "pharmacy",
    "healthcare": "pharmacy",
    "name": "Eric's Chemists"
  }
},
{
  "type": "node",
  "id": 3802490258,
  "lat": 5.6961969,
  "lon": -0.0133510,
  "tags": {
    "amenity": "pharmacy",
    "name": "Eric's Chemists"
  }
},
{
  "type": "node",
  "id": 3802490268,
  "lat": 5.7080264,
  "lon": -0.0149194,
  "tags": {
    "amenity": "clinic",
    "healthcare": "clinic",
    "name": "All Care Medical Center"
  }
},
{
  "type": "node",
  "id": 3802490987,
  "lat": 5.6473956,
  "lon": -0.1497059,
  "tags": {
    "amenity": "pharmacy",
    "name": "EPCL"
  }
},
{
  "type": "node",
  "id": 3802491199,
  "lat": 5.6480879,
  "lon": -0.1330656,
  "tags": {
    "amenity": "pharmacy",
    "name": "Zizi's Pharmacy"
  }
},
{
  "type": "node",
  "id": 3807057244,
  "lat": 6.0061958,
  "lon": 0.6158548,
  "tags": {
    "amenity": "clinic",
    "healthcare": "clinic",
    "name": "Topview Diagnostic Center"
  }
},
{
  "type": "node",
  "id": 3818010148,
  "lat": 4.9639239,
  "lon": -1.6942652,
  "tags": {
    "amenity": "doctors",
    "name": "Madamfo Specialist Hospital"
  }
},
{
  "type": "node",
  "id": 3830300488,
  "lat": 5.5279801,
  "lon": -0.3871832,
  "tags": {
    "amenity": "pharmacy",
    "name": "Treasure Image Pharmacy"
  }
},
{
  "type": "node",
  "id": 3830300489,
  "lat": 5.5119999,
  "lon": -0.3931086,
  "tags": {
    "amenity": "doctors",
    "name": "Tuba Community Maternity & Clinic"
  }
},
{
  "type": "node",
  "id": 3837992784,
  "lat": 5.5732555,
  "lon": -0.1979428,
  "tags": {
    "amenity": "pharmacy",
    "check_date": "2023-04-29",
    "dispensing": "yes",
    "drive_through": "no",
    "healthcare": "pharmacy",
    "name": "Medicines Plus Pharmacy",
    "payment:cash": "yes",
    "source": "local knowledge",
    "wheelchair": "limited"
  }
},
{
  "type": "node",
  "id": 3842054527,
  "lat": 5.2727196,
  "lon": -2.0358216,
  "tags": {
    "amenity": "clinic",
    "healthcare": "clinic",
    "name": "Tebrebe Clinic"
  }
},
{
  "type": "node",
  "id": 3950017304,
  "lat": 5.5927466,
  "lon": -0.2060338,
  "tags": {
    "amenity": "doctors",
    "healthcare": "doctor",
    "name": "King David Hospital"
  }
},
{
  "type": "node",
  "id": 3960377428,
  "lat": 5.9109714,
  "lon": 0.9906113,
  "tags": {
    "amenity": "pharmacy",
    "healthcare": "pharmacy",
    "name": "Theodore Semey Kwaku"
  }
},
{
  "type": "node",
  "id": 3961469680,
  "lat": 5.6048663,
  "lon": -0.2042209,
  "tags": {
    "addr:city": "Accra",
    "addr:street": "Olusegun Obasanjo High Street",
    "alt_name": "Ernest Chemists Dzorwulu",
    "amenity": "pharmacy",
    "branch": "Dzorwulu",
    "healthcare": "pharmacy",
    "name": "Ernest Chemists",
    "opening_hours": "Mo-Fr 07:00-20:00; Sa 09:00-19:30; Su closed",
    "operator": "Ernest Chemists Limited",
    "phone": "+23330 396 5677",
    "website": "https://ernest-chemists-dzorwulu.business.site/"
  }
},
{
  "type": "node",
  "id": 4021383012,
  "lat": 5.6122457,
  "lon": -0.1822982,
  "tags": {
    "amenity": "doctors",
    "healthcare": "doctor",
    "name": "Claron Health International"
  }
},
{
  "type": "node",
  "id": 4028748318,
  "lat": 6.7121104,
  "lon": -1.5224540,
  "tags": {
    "amenity": "pharmacy"
  }
},
{
  "type": "node",
  "id": 4099430311,
  "lat": 5.5349051,
  "lon": -0.6927307,
  "tags": {
    "amenity": "pharmacy",
    "name": "Drug Store"
  }
},
{
  "type": "node",
  "id": 4157336040,
  "lat": 5.5723530,
  "lon": -0.2001360,
  "tags": {
    "amenity": "pharmacy",
    "check_date": "2023-05-10",
    "dispensing": "yes",
    "drive_through": "no",
    "healthcare": "pharmacy",
    "name": "Asylum Down Pharmacy",
    "payment:cash": "yes",
    "wheelchair": "limited"
  }
},
{
  "type": "node",
  "id": 4157336043,
  "lat": 5.5704896,
  "lon": -0.2015919,
  "tags": {
    "amenity": "doctors",
    "name": "M Pact Clinic"
  }
},
{
  "type": "node",
  "id": 4171178747,
  "lat": 6.7003567,
  "lon": -1.5949466,
  "tags": {
    "amenity": "pharmacy",
    "name": "Nako"
  }
},
{
  "type": "node",
  "id": 4185262041,
  "lat": 5.6336142,
  "lon": -0.1575854,
  "tags": {
    "amenity": "doctors",
    "name": "Acacia Medical Centre"
  }
},
{
  "type": "node",
  "id": 4217160878,
  "lat": 5.2852074,
  "lon": -2.0004705,
  "tags": {
    "amenity": "clinic",
    "name": "Health Plus Clinic"
  }
},
{
  "type": "node",
  "id": 4224179935,
  "lat": 7.3134112,
  "lon": -1.5788915,
  "tags": {
    "amenity": "clinic"
  }
},
{
  "type": "node",
  "id": 4239386293,
  "lat": 5.6273579,
  "lon": -0.1462456,
  "tags": {
    "amenity": "pharmacy",
    "name": "Nyaah Pharmacy",
    "name:it": "Nyaah"
  }
},
{
  "type": "node",
  "id": 4269314814,
  "lat": 5.3058609,
  "lon": -1.9948473,
  "tags": {
    "amenity": "pharmacy",
    "name": "Westlink Chemists Limited"
  }
},
{
  "type": "node",
  "id": 4269314815,
  "lat": 5.3061903,
  "lon": -1.9946284,
  "tags": {
    "amenity": "pharmacy",
    "name": "Wilmens Pharmacy"
  }
},
{
  "type": "node",
  "id": 4270160491,
  "lat": 5.5490035,
  "lon": -0.2088607,
  "tags": {
    "amenity": "pharmacy",
    "healthcare": "pharmacy",
    "name": "J M Addo and sons ltd.",
    "phone": "0302666132"
  }
},
{
  "type": "node",
  "id": 4278047642,
  "lat": 5.5568986,
  "lon": -0.1784063,
  "tags": {
    "amenity": "clinic",
    "name": "Lifebridge Physio Clinic"
  }
},
{
  "type": "node",
  "id": 4286153094,
  "lat": 5.7108652,
  "lon": -0.0370839,
  "tags": {
    "amenity": "hospital",
    "healthcare": "hospital",
    "name": "Ashaiman Community Hospital"
  }
},
{
  "type": "node",
  "id": 4286159096,
  "lat": 5.6902728,
  "lon": -0.0343304,
  "tags": {
    "amenity": "clinic",
    "healthcare": "clinic",
    "name": "New Crystal Hospital"
  }
},
{
  "type": "node",
  "id": 4286172893,
  "lat": 5.6833810,
  "lon": -0.0362583,
  "tags": {
    "amenity": "clinic",
    "healthcare": "clinic",
    "name": "Dar-bem Clinic"
  }
},
{
  "type": "node",
  "id": 4286172896,
  "lat": 5.6882259,
  "lon": -0.0327441,
  "tags": {
    "amenity": "clinic",
    "healthcare": "clinic",
    "name": "St Florence Clinic"
  }
},
{
  "type": "node",
  "id": 4286173091,
  "lat": 5.6921057,
  "lon": -0.0342412,
  "tags": {
    "amenity": "clinic",
    "healthcare": "clinic",
    "name": "Afenyo Memorial Hospital"
  }
},
{
  "type": "node",
  "id": 4286173989,
  "lat": 5.6868756,
  "lon": -0.0399833,
  "tags": {
    "amenity": "clinic",
    "healthcare": "clinic",
    "name": "Okanta Clinic"
  }
},
{
  "type": "node",
  "id": 4305848889,
  "lat": 5.5941177,
  "lon": -0.2320532,
  "tags": {
    "amenity": "doctors",
    "healthcare": "doctor",
    "name": "Dr. K.K. Duncan"
  }
},
{
  "type": "node",
  "id": 4313553906,
  "lat": 5.6725626,
  "lon": -0.0148422,
  "tags": {
    "amenity": "pharmacy",
    "healthcare": "pharmacy",
    "name": "Top Pill Pharmacy"
  }
},
{
  "type": "node",
  "id": 4316803036,
  "lat": 5.6174757,
  "lon": -0.2262614,
  "tags": {
    "amenity": "doctors",
    "healthcare": "doctor",
    "name": "Midway Clinic Ltd."
  }
},
{
  "type": "node",
  "id": 4333788620,
  "lat": 5.3511022,
  "lon": -0.8436953,
  "tags": {
    "amenity": "clinic",
    "name": "Ngyiresi CHPS Compound"
  }
},
{
  "type": "node",
  "id": 4349069300,
  "lat": 5.6373107,
  "lon": -0.1502454,
  "tags": {
    "amenity": "pharmacy",
    "name": "Equity pharmacy"
  }
},
{
  "type": "node",
  "id": 4350251990,
  "lat": 5.6877696,
  "lon": 0.0004450,
  "tags": {
    "amenity": "pharmacy",
    "name": "Ernest Chemist"
  }
},
{
  "type": "node",
  "id": 4370881507,
  "lat": 4.9030709,
  "lon": -1.7583276,
  "tags": {
    "amenity": "pharmacy",
    "name": "Ernest Chemist"
  }
},
{
  "type": "node",
  "id": 4400481802,
  "lat": 5.6784823,
  "lon": -0.0281321,
  "tags": {
    "amenity": "clinic",
    "name": "Solace Hospital"
  }
},
{
  "type": "node",
  "id": 4400481906,
  "lat": 5.5842028,
  "lon": -0.1606429,
  "tags": {
    "amenity": "pharmacy",
    "healthcare": "pharmacy",
    "name": "East Cantoment Pharmacy"
  }
},
{
  "type": "node",
  "id": 4400503914,
  "lat": 5.6862571,
  "lon": -0.1678208,
  "tags": {
    "amenity": "pharmacy",
    "name": "Forbiq Pharmacy"
  }
},
{
  "type": "node",
  "id": 4400503922,
  "lat": 5.6483736,
  "lon": -0.0282147,
  "tags": {
    "amenity": "doctors",
    "name": "COY Paediatric"
  }
},
{
  "type": "node",
  "id": 4400503925,
  "lat": 5.6601472,
  "lon": -0.0207067,
  "tags": {
    "amenity": "doctors",
    "healthcare": "doctor",
    "name": "Raphal Medical Center"
  }
},
{
  "type": "node",
  "id": 4400510392,
  "lat": 5.7060649,
  "lon": -0.1681089,
  "tags": {
    "amenity": "clinic",
    "name": "Adenta Clinic"
  }
},
{
  "type": "node",
  "id": 4400510792,
  "lat": 5.6529005,
  "lon": -0.0224658,
  "tags": {
    "amenity": "clinic",
    "healthcare": "clinic",
    "name": "Caiquo Hospital"
  }
},
{
  "type": "node",
  "id": 4400511089,
  "lat": 5.6858028,
  "lon": -0.1500011,
  "tags": {
    "addr:city": "Accra",
    "addr:street": "Ashale Botwe Nmai Dzorn Road",
    "alt_name": "Third Gate pharmacy",
    "amenity": "pharmacy",
    "check_date": "2023-10-31",
    "healthcare": "pharmacy",
    "name": "3rd Gate Pharmacy",
    "wheelchair": "yes"
  }
},
{
  "type": "node",
  "id": 4400511291,
  "lat": 5.6927425,
  "lon": -0.1721517,
  "tags": {
    "amenity": "pharmacy",
    "name": "Telad Pharmacy"
  }
},
{
  "type": "node",
  "id": 4429993095,
  "lat": 5.5523517,
  "lon": -0.2112043,
  "tags": {
    "air_conditioning": "yes",
    "amenity": "clinic",
    "branch": "Accra-Ghana",
    "check_date": "2023-04-21",
    "healthcare": "clinic",
    "name": "Medical & Dental Council Ghana",
    "operator:type": "public",
    "source": "local knowledge",
    "wheelchair": "limited"
  }
},
{
  "type": "node",
  "id": 4430009890,
  "lat": 5.5589459,
  "lon": -0.2227967,
  "tags": {
    "amenity": "pharmacy",
    "check_date": "2023-04-21",
    "drive_through": "no",
    "name": "Starwin Products Ltd",
    "wheelchair": "limited"
  }
},
{
  "type": "node",
  "id": 4430018890,
  "lat": 5.5520400,
  "lon": -0.2111612,
  "tags": {
    "amenity": "pharmacy",
    "healthcare": "pharmacy",
    "name": "Pharmacy Council &National Drug"
  }
},
{
  "type": "node",
  "id": 4443298689,
  "lat": 5.5610799,
  "lon": -0.2600791,
  "tags": {
    "amenity": "clinic",
    "check_date": "2023-06-10",
    "healthcare:speciality": "general",
    "name": "Dansoman polyclinic",
    "name:en": "Dansoman polyclinic",
    "operator:type": "public",
    "payment:cash": "yes",
    "source": "local knowledge",
    "wheelchair": "limited"
  }
},
{
  "type": "node",
  "id": 4449818564,
  "lat": 10.0688655,
  "lon": -0.8971085,
  "tags": {
    "amenity": "clinic",
    "name": "CHPS"
  }
},
{
  "type": "node",
  "id": 4458050665,
  "lat": 4.8935537,
  "lon": -1.7557157,
  "tags": {
    "amenity": "doctors",
    "name": "West End Clinic"
  }
},
{
  "type": "node",
  "id": 4462237991,
  "lat": 5.5663633,
  "lon": -0.1829188,
  "tags": {
    "amenity": "pharmacy",
    "healthcare": "pharmacy",
    "name": "Relish/Akai",
    "name:en": "Relish/Akai"
  }
},
{
  "type": "node",
  "id": 4479634129,
  "lat": 5.6187279,
  "lon": -0.0543189,
  "tags": {
    "amenity": "pharmacy",
    "email": "info@alaskapharma.com",
    "name": "Alaska Pharmacy",
    "opening_hours": "Mo-Fr 09:00-18:00",
    "operator": "Alaska Pharmacy Limited",
    "phone": "+233244749116",
    "website": "http://alaskapharma.com"
  }
},
{
  "type": "node",
  "id": 4502539492,
  "lat": 5.7815423,
  "lon": -2.0838859,
  "tags": {
    "amenity": "clinic",
    "name": "Wassa Akropong Government Hospital",
    "name:en": "Wassa Akropong Government Hospital",
    "opening_hours": "24/7",
    "website": "http://www.ghanahealthservice.org"
  }
},
{
  "type": "node",
  "id": 4516622590,
  "lat": 5.5820876,
  "lon": -0.1984631,
  "tags": {
    "addr:street": "Al Waleed Bin Talal Highway",
    "amenity": "pharmacy",
    "email": "lessonpharmacy@yahoo.com",
    "healthcare": "pharmacy",
    "name": "Lesson Pharmacy",
    "opening_hours": "Mo-Fr 07:00-22:00; Sa 08:00-21:00",
    "operator": "Ankama Family",
    "phone": "0264700540"
  }
},
{
  "type": "node",
  "id": 4528254892,
  "lat": 5.7916311,
  "lon": 0.8825777,
  "tags": {
    "amenity": "clinic",
    "name": "Anloga Avete Clinic"
  }
},
{
  "type": "node",
  "id": 4534020092,
  "lat": 6.6342427,
  "lon": -0.7403711,
  "tags": {
    "addr:street": "Nkwatia- Abetifi",
    "amenity": "clinic",
    "email": "info@natherbal.com",
    "name": "Nat Herbal Clinic",
    "name:en": "Nat Herbal Clinic",
    "opening_hours": "Mo-Sa 08:30-17:00",
    "operator": "Tr Dr Sampson Nartey",
    "phone": "+233244165142",
    "website": "http://www.natherbal.com"
  }
},
{
  "type": "node",
  "id": 4542360241,
  "lat": 5.2982263,
  "lon": -1.9905288,
  "tags": {
    "amenity": "pharmacy",
    "name": "Kekule Pharmacy Limited"
  }
},
{
  "type": "node",
  "id": 4554919900,
  "lat": 5.6413071,
  "lon": -0.1772622,
  "tags": {
    "addr:city": "Okponglo",
    "amenity": "pharmacy",
    "name": "Emporium Pharmacy",
    "operator": "8am - 9pm"
  }
},
{
  "type": "node",
  "id": 4557928697,
  "lat": 5.6427452,
  "lon": -0.2494993,
  "tags": {
    "amenity": "clinic",
    "healthcare": "clinic",
    "name": "Champion Divine"
  }
},
{
  "type": "node",
  "id": 4557990252,
  "lat": 5.6276021,
  "lon": -0.2421981,
  "tags": {
    "amenity": "pharmacy",
    "healthcare": "pharmacy",
    "name": "Eribel Pharmacy"
  }
},
{
  "type": "node",
  "id": 4558008436,
  "lat": 5.6238756,
  "lon": -0.2406312,
  "tags": {
    "amenity": "pharmacy",
    "healthcare": "pharmacy"
  }
},
{
  "type": "node",
  "id": 4585620889,
  "lat": 6.7433264,
  "lon": -1.4580690,
  "tags": {
    "amenity": "clinic",
    "name": "George & Angelina"
  }
},
{
  "type": "node",
  "id": 4594011197,
  "lat": 6.8503377,
  "lon": -1.3960604,
  "tags": {
    "amenity": "pharmacy",
    "name": "Agnes Boateng",
    "name:en": "Agnes Boateng"
  }
},
{
  "type": "node",
  "id": 4594133293,
  "lat": 6.8501680,
  "lon": -1.3970805,
  "tags": {
    "amenity": "pharmacy",
    "name": "Bro.TONNY",
    "name:en": "Bro.TONNY"
  }
},
{
  "type": "node",
  "id": 4595157289,
  "lat": 6.8496529,
  "lon": -1.3971473,
  "tags": {
    "amenity": "pharmacy",
    "name": "St.DOMINIC",
    "name:en": "St.DOMINIC"
  }
},
{
  "type": "node",
  "id": 4598936890,
  "lat": 6.8497107,
  "lon": -1.3956520,
  "tags": {
    "amenity": "pharmacy",
    "name": "Agya OSEI",
    "name:en": "Agya OSEI"
  }
},
{
  "type": "node",
  "id": 4614565789,
  "lat": 5.3833164,
  "lon": -0.9250126,
  "tags": {
    "addr:street": "Ajumako-Mabdo",
    "amenity": "clinic",
    "healthcare": "clinic",
    "name": "GHS",
    "opening_hours": "24/7",
    "operator": "Ghana Health Service",
    "operator:wikidata": "Q5555350"
  }
},
{
  "type": "node",
  "id": 4614566089,
  "lat": 5.3301088,
  "lon": -0.8334708,
  "tags": {
    "addr:street": "Kyiri-Nkwanta",
    "amenity": "clinic",
    "healthcare": "clinic",
    "name": "GHS (Chips Zone)",
    "operator": "Ghana Health Service",
    "operator:wikidata": "Q5555350"
  }
},
{
  "type": "node",
  "id": 4615061889,
  "lat": 5.3390201,
  "lon": -0.9139165,
  "tags": {
    "amenity": "clinic",
    "name": "Sanford Internal Clinic",
    "name:en": "Sanford Internal Clinic"
  }
},
{
  "type": "node",
  "id": 4621957790,
  "lat": 6.6611852,
  "lon": -1.6769815,
  "tags": {
    "amenity": "hospital",
    "name": "Aburaso Health center",
    "opening_hours": "24/7"
  }
},
{
  "type": "node",
  "id": 4648209596,
  "lat": 5.7003225,
  "lon": -0.1800937,
  "tags": {
    "amenity": "pharmacy",
    "name": "Equa Chemical Shop",
    "name:en": "Equa Chemical Shop"
  }
},
{
  "type": "node",
  "id": 4712847592,
  "lat": 5.6803825,
  "lon": -0.1762184,
  "tags": {
    "amenity": "clinic",
    "name": "Christleads Medical Center",
    "name:en": "Christleads Medical Center"
  }
},
{
  "type": "node",
  "id": 4741290374,
  "lat": 5.7046707,
  "lon": -0.0145108,
  "tags": {
    "amenity": "pharmacy",
    "name": "Gap Pharmacy",
    "name:en": "Gap Pharmacy"
  }
},
{
  "type": "node",
  "id": 4746491621,
  "lat": 5.6326817,
  "lon": -0.0065233,
  "tags": {
    "amenity": "clinic",
    "healthcare": "clinic",
    "name": "G.P.H.A Clinic Tema",
    "name:en": "G.P.H.A Clinic Tema"
  }
},
{
  "type": "node",
  "id": 4771159343,
  "lat": 5.4988510,
  "lon": -0.3669524,
  "tags": {
    "amenity": "pharmacy"
  }
},
{
  "type": "node",
  "id": 4775971607,
  "lat": 5.2969926,
  "lon": -2.0001702,
  "tags": {
    "amenity": "pharmacy",
    "name": "Adom Chemical Shop",
    "shop": "chemist"
  }
},
{
  "type": "node",
  "id": 4780055840,
  "lat": 5.6304406,
  "lon": -0.1744333,
  "tags": {
    "addr:city": "Accra",
    "addr:street": "Maseru Avenue",
    "amenity": "clinic",
    "name": "Emmanuel Eye Clinic"
  }
},
{
  "type": "node",
  "id": 4789654972,
  "lat": 5.6317096,
  "lon": -0.1742594,
  "tags": {
    "addr:city": "Accra",
    "addr:street": "Maseru Avenue",
    "amenity": "clinic",
    "name": "Diagnostic Centre"
  }
},
{
  "type": "node",
  "id": 4801479847,
  "lat": 5.6721049,
  "lon": -0.5151614,
  "tags": {
    "amenity": "clinic",
    "description": "Services include Treatment of Minor Ailments, Family Planning, Immunization / CWC, Deliveries, ANC, PNC, HTC, Counseling, Health/Education/Promotions",
    "emergency": "no",
    "name": "Adawukwao CHIPS Compound",
    "opening_hours": "24/7",
    "operator": "Government"
  }
},
{
  "type": "node",
  "id": 4803881309,
  "lat": 5.3658203,
  "lon": -1.9409662,
  "tags": {
    "amenity": "clinic",
    "fixme": "location",
    "name": "Aboso Clinic"
  }
},
{
  "type": "node",
  "id": 4830568666,
  "lat": 5.6064835,
  "lon": -0.0778071,
  "tags": {
    "amenity": "doctors",
    "name": "Christian Medical Centre & Laboratory"
  }
},
{
  "type": "node",
  "id": 4851957897,
  "lat": 5.5695349,
  "lon": -2.0195425,
  "tags": {
    "amenity": "clinic",
    "name": "Bogoso Clinic"
  }
},
{
  "type": "node",
  "id": 4881656377,
  "lat": 6.7513731,
  "lon": -1.6421060,
  "tags": {
    "amenity": "pharmacy",
    "name": "Dadmum Pharmacy",
    "opening_hours": "Mo-Sa 08:00-21:00; Su 13:00-21:00"
  }
},
{
  "type": "node",
  "id": 4891945821,
  "lat": 5.8014438,
  "lon": -0.4914678,
  "tags": {
    "amenity": "doctors",
    "email": "annatmedicals@gmail.com",
    "internet_access": "wlan",
    "name": "Annat Medical Diagnostics Centre",
    "opening_hours": "Mo-Sa 08:00-17:00",
    "phone": "+233249074352",
    "website": "https://www.fb.com/annatmedicals"
  }
},
{
  "type": "node",
  "id": 4925292335,
  "lat": 6.6839711,
  "lon": -1.6164051,
  "tags": {
    "addr:street": "Osei Tutu I Avenue",
    "amenity": "clinic",
    "name": "Cocoa Clinic",
    "opening_hours": "24/7",
    "phone": "+233 322080495"
  }
},
{
  "type": "node",
  "id": 4927406375,
  "lat": 5.5662908,
  "lon": -0.1835999,
  "tags": {
    "amenity": "pharmacy",
    "name": "Ebenezer pharmacy"
  }
},
{
  "type": "node",
  "id": 4938323585,
  "lat": 6.6871482,
  "lon": -1.5736810,
  "tags": {
    "amenity": "pharmacy"
  }
},
{
  "type": "node",
  "id": 4943837822,
  "lat": 5.6531812,
  "lon": -0.1791792,
  "tags": {
    "amenity": "pharmacy",
    "branch": "Legon Retail",
    "contact:email": "retails@ernestchemists.com",
    "contact:phone": "+233 303 996 7865",
    "contact:whatsapp": "+233 50 1608 865",
    "healthcare": "pharmacy",
    "name": "Ernest Chemist",
    "opening_hours": "Mo-Fr 08:00-19:00",
    "operator": "Ernest Chemists Limited",
    "website": "https://ernestchemists.com"
  }
},
{
  "type": "node",
  "id": 4951010023,
  "lat": 5.6339009,
  "lon": -0.1727902,
  "tags": {
    "addr:city": "Accra",
    "addr:housenumber": "23",
    "addr:street": "Lagos Avenue",
    "amenity": "pharmacy",
    "name": "Ernest Chemists East Legon Retail",
    "name:en": "Ernest Chemists East Legon Retail",
    "phone": "+233 30 397 3976",
    "website": "https://ernestchemists.com"
  }
},
{
  "type": "node",
  "id": 4955246621,
  "lat": 6.7006375,
  "lon": -1.5504453,
  "tags": {
    "addr:street": "Nsenie Main Street",
    "amenity": "pharmacy",
    "name": "DE-MAKS Pharmacy"
  }
},
{
  "type": "node",
  "id": 4971251581,
  "lat": 5.5729583,
  "lon": -0.2310625,
  "tags": {
    "amenity": "pharmacy",
    "name": "Maxkins Pharmacy"
  }
},
{
  "type": "node",
  "id": 4972577043,
  "lat": 5.6715518,
  "lon": -0.1898203,
  "tags": {
    "amenity": "pharmacy",
    "name": "Benalice"
  }
},
{
  "type": "node",
  "id": 4990644968,
  "lat": 5.6215770,
  "lon": -0.0710815,
  "tags": {
    "amenity": "pharmacy",
    "healthcare": "pharmacy",
    "level": "0",
    "name": "Brobbson Pharmacy"
  }
},
{
  "type": "node",
  "id": 5005175758,
  "lat": 5.5932220,
  "lon": -0.2065569,
  "tags": {
    "amenity": "pharmacy",
    "healthcare": "pharmacy",
    "name": "Tobinco Pharmaceuticals Limited"
  }
},
{
  "type": "node",
  "id": 5017201476,
  "lat": 5.5695016,
  "lon": -0.1684745,
  "tags": {
    "addr:street": "Ndabaningi Sithole",
    "amenity": "pharmacy"
  }
},
{
  "type": "node",
  "id": 5029455806,
  "lat": 5.6833155,
  "lon": -0.1322430,
  "tags": {
    "amenity": "pharmacy",
    "name": "Telad Pharmay"
  }
},
{
  "type": "node",
  "id": 5046972667,
  "lat": 4.8963519,
  "lon": -1.7636828,
  "tags": {
    "amenity": "pharmacy",
    "branch": "Takoradi",
    "check_date": "2023-03-14",
    "description": "Pharmaceuticals ( wholesale)",
    "drive_through": "no",
    "name": "Tobinco",
    "opening_hours": "Mo-Sa 08:30-17:00",
    "payment:cash": "yes",
    "payment:notes": "yes",
    "phone": "+233 54 012 4081",
    "source": "local knowledge",
    "wheelchair": "no"
  }
},
{
  "type": "node",
  "id": 5046972668,
  "lat": 4.8971823,
  "lon": -1.7652746,
  "tags": {
    "amenity": "pharmacy",
    "name": "Cramer Chemist"
  }
},
{
  "type": "node",
  "id": 5051344421,
  "lat": 5.7510951,
  "lon": -0.0164622,
  "tags": {
    "amenity": "pharmacy",
    "email": "duetphservice@yahoo.com",
    "name": "Duet Pharmacy",
    "phone": "0242733267"
  }
},
{
  "type": "node",
  "id": 5077394121,
  "lat": 10.5335580,
  "lon": -2.6997333,
  "tags": {
    "amenity": "clinic",
    "name": "St. Joseph's Hospital",
    "name:en": "St. Joseph's Hospital"
  }
},
{
  "type": "node",
  "id": 5083433636,
  "lat": 5.6326678,
  "lon": -0.1396273,
  "tags": {
    "addr:street": "Spintex Road",
    "amenity": "pharmacy",
    "name": "The Medipoint",
    "name:en": "The Medipoint"
  }
},
{
  "type": "node",
  "id": 5087710549,
  "lat": 5.9993222,
  "lon": 0.5971460,
  "tags": {
    "amenity": "pharmacy",
    "healthcare": "pharmacy",
    "name": "Jeb Pharmacy"
  }
},
{
  "type": "node",
  "id": 5087711022,
  "lat": 5.9986489,
  "lon": 0.5951591,
  "tags": {
    "amenity": "pharmacy",
    "healthcare": "pharmacy",
    "shop": "chemist"
  }
},
{
  "type": "node",
  "id": 5109825922,
  "lat": 6.8008936,
  "lon": -2.5175025,
  "tags": {
    "addr:street": "Dr. Obour Boffah Link",
    "amenity": "pharmacy",
    "name": "Geomat Pharmacy Limited",
    "phone": "0204925500"
  }
},
{
  "type": "node",
  "id": 5115858546,
  "lat": 5.5451393,
  "lon": -0.7027459,
  "tags": {
    "addr:city": "Agona Swedru",
    "addr:country": "GH",
    "amenity": "pharmacy",
    "name": "Drug Store"
  }
},
{
  "type": "node",
  "id": 5126056121,
  "lat": 6.2728120,
  "lon": -2.3192901,
  "tags": {
    "amenity": "clinic",
    "name": "Chirano health center",
    "name:en": "Chirano health center"
  }
},
{
  "type": "node",
  "id": 5126073022,
  "lat": 6.2724839,
  "lon": -2.3169406,
  "tags": {
    "amenity": "pharmacy",
    "name": "Benedicta Twumwaa licensed shop",
    "name:en": "Benedicta Twumwaa licensed shop"
  }
},
{
  "type": "node",
  "id": 5128388438,
  "lat": 5.5624183,
  "lon": -0.1873077,
  "tags": {
    "amenity": "pharmacy",
    "name": "Angola Road Chemists Limited"
  }
},
{
  "type": "node",
  "id": 5128388439,
  "lat": 5.5646008,
  "lon": -0.1811741,
  "tags": {
    "amenity": "pharmacy",
    "healthcare": "pharmacy",
    "name": "Top-Up Pharmacy"
  }
},
{
  "type": "node",
  "id": 5128389744,
  "lat": 5.3025007,
  "lon": -1.9874068,
  "tags": {
    "amenity": "pharmacy",
    "healthcare": "pharmacy",
    "name": "Grammar Chemist",
    "shop": "chemist"
  }
},
{
  "type": "node",
  "id": 5128390091,
  "lat": 5.5611257,
  "lon": -0.1851768,
  "tags": {
    "amenity": "pharmacy",
    "healthcare": "pharmacy",
    "name": "Anasapharma Limited"
  }
},
{
  "type": "node",
  "id": 5150562247,
  "lat": 5.5552210,
  "lon": -0.2114779,
  "tags": {
    "amenity": "pharmacy",
    "healthcare": "pharmacy",
    "name": "Frontline Pharmacy"
  }
},
{
  "type": "node",
  "id": 5150562248,
  "lat": 5.5543241,
  "lon": -0.2085270,
  "tags": {
    "amenity": "clinic",
    "healthcare": "clinic",
    "name": "SIC Bob Freeman Clinic",
    "phone": "030268283233"
  }
},
{
  "type": "node",
  "id": 5150562249,
  "lat": 5.5530775,
  "lon": -0.2082687,
  "tags": {
    "amenity": "pharmacy",
    "healthcare": "pharmacy",
    "name": "Tudu Pharmacy"
  }
},
{
  "type": "node",
  "id": 5188828824,
  "lat": 5.6847732,
  "lon": -0.0387008,
  "tags": {
    "addr:street": "Atankpa Tettey Street",
    "amenity": "pharmacy",
    "healthcare": "pharmacy",
    "name": "Ashaiman Pharmacy",
    "phone": "022300492"
  }
},
{
  "type": "node",
  "id": 5199759903,
  "lat": 5.6081001,
  "lon": -0.2420194,
  "tags": {
    "amenity": "clinic",
    "healthcare": "clinic",
    "name": "Opmann Clinic"
  }
},
{
  "type": "node",
  "id": 5199760922,
  "lat": 5.6080762,
  "lon": -0.2422966,
  "tags": {
    "amenity": "pharmacy",
    "fixme": "check location",
    "healthcare": "pharmacy",
    "name": "Tedolex Pharmacy"
  }
},
{
  "type": "node",
  "id": 5209798110,
  "lat": 5.6758049,
  "lon": -0.1734678,
  "tags": {
    "amenity": "pharmacy",
    "name": "Nascata Pharmacy Limited",
    "phone": "+233243683506"
  }
},
{
  "type": "node",
  "id": 5209798229,
  "lat": 5.6691692,
  "lon": -0.1769998,
  "tags": {
    "amenity": "pharmacy",
    "name": "ECP Pharmacy Wholesale",
    "website": "www.ecpl.com.gh"
  }
},
{
  "type": "node",
  "id": 5210012726,
  "lat": 5.6529910,
  "lon": -0.1300362,
  "tags": {
    "amenity": "pharmacy",
    "drive_through": "no"
  }
},
{
  "type": "node",
  "id": 5210311621,
  "lat": 5.6518739,
  "lon": -0.1312267,
  "tags": {
    "amenity": "clinic",
    "healthcare": "clinic",
    "name": "Rinat Clinic",
    "opening_hours": "24/7",
    "phone": "+233 30 251 5901"
  }
},
{
  "type": "node",
  "id": 5210337471,
  "lat": 5.6601658,
  "lon": -0.1517444,
  "tags": {
    "amenity": "clinic",
    "healthcare": "alternative",
    "name": "Prolife Chinese Acupuncture Clinic"
  }
},
{
  "type": "node",
  "id": 5210898985,
  "lat": 5.6792722,
  "lon": -0.1919924,
  "tags": {
    "amenity": "pharmacy",
    "name": "Maidaal Pharmacy"
  }
},
{
  "type": "node",
  "id": 5210899221,
  "lat": 5.6686491,
  "lon": -0.1880574,
  "tags": {
    "amenity": "pharmacy",
    "name": "Radiance Pharmacy"
  }
},
{
  "type": "node",
  "id": 5235963521,
  "lat": 5.6412601,
  "lon": -0.1739646,
  "tags": {
    "amenity": "pharmacy",
    "name": "Rhamshiv Pharmacy",
    "opening_hours": "Mo-Sa 07:00-22:00; Su 15:00-22:00"
  }
},
{
  "type": "node",
  "id": 5236480338,
  "lat": 5.5905479,
  "lon": -0.1814424,
  "tags": {
    "amenity": "pharmacy",
    "check_date": "2023-06-05",
    "dispensing": "yes",
    "drive_through": "no",
    "healthcare": "pharmacy",
    "name": "Richben Pharmacy Limited",
    "name:it": "Richben",
    "payment:cash": "yes",
    "source": "local knowledge",
    "wheelchair": "limited"
  }
},
{
  "type": "node",
  "id": 5239750195,
  "lat": 4.9357441,
  "lon": -2.3552129,
  "tags": {
    "amenity": "clinic",
    "name": "Essiama Community Health Centre"
  }
},
{
  "type": "node",
  "id": 5287626001,
  "lat": 5.5526814,
  "lon": -0.2720462,
  "tags": {
    "amenity": "pharmacy",
    "name": "Kaizen Pharma Limited",
    "phone": "+233 289101533"
  }
},
{
  "type": "node",
  "id": 5287626004,
  "lat": 5.5577586,
  "lon": -0.2691806,
  "tags": {
    "amenity": "pharmacy",
    "name": "Fidelity Pharmacy"
  }
},
{
  "type": "node",
  "id": 5300408284,
  "lat": 5.6409902,
  "lon": -0.1774232,
  "tags": {
    "amenity": "pharmacy",
    "name": "Solutions Pharmaceuticals Limited",
    "opening_hours": "Mo-Sa 08:00-21:00, 09:00-18:00; Su 15:00-21:00",
    "phone": "+233 302432608"
  }
},
{
  "type": "node",
  "id": 5300409376,
  "lat": 5.6470772,
  "lon": -0.1689755,
  "tags": {
    "amenity": "pharmacy",
    "name": "Pillpoint Pharmacy (Retail)"
  }
},
{
  "type": "node",
  "id": 5301563288,
  "lat": 5.6781119,
  "lon": -0.1224695,
  "tags": {
    "amenity": "pharmacy",
    "name": "Pebs Pharmacy Limited"
  }
},
{
  "type": "node",
  "id": 5301563451,
  "lat": 5.6828539,
  "lon": -0.1361645,
  "tags": {
    "amenity": "pharmacy"
  }
},
{
  "type": "node",
  "id": 5302018799,
  "lat": 5.5798941,
  "lon": -0.2663247,
  "tags": {
    "amenity": "pharmacy",
    "healthcare": "pharmacy",
    "name": "Ernest Chemist"
  }
},
{
  "type": "node",
  "id": 5302018800,
  "lat": 5.5506304,
  "lon": -0.3559071,
  "tags": {
    "amenity": "pharmacy",
    "healthcare": "pharmacy",
    "name": "East Cantonments Pharmacy Limited, Wholesale",
    "short_name": "ECP Limited"
  }
},
{
  "type": "node",
  "id": 5308353646,
  "lat": 7.3362633,
  "lon": -2.3285010,
  "tags": {
    "amenity": "pharmacy",
    "healthcare": "pharmacy",
    "name": "Greenlight Pharmacy"
  }
},
{
  "type": "node",
  "id": 5308402796,
  "lat": 7.3438349,
  "lon": -2.3286517,
  "tags": {
    "amenity": "clinic",
    "healthcare": "clinic",
    "name": "Opoku Clinic"
  }
},
{
  "type": "node",
  "id": 5308402797,
  "lat": 7.3431512,
  "lon": -2.3274742,
  "tags": {
    "amenity": "clinic",
    "healthcare": "clinic",
    "name": "Healthlane Clinic",
    "operator": "Doctor Asare"
  }
},
{
  "type": "node",
  "id": 5321471509,
  "lat": 5.5542568,
  "lon": -0.1718348,
  "tags": {
    "amenity": "clinic",
    "healthcare": "clinic",
    "name": "Healthnet Clinic",
    "name:it": "Healthnet"
  }
},
{
  "type": "node",
  "id": 5321471739,
  "lat": 5.5880529,
  "lon": -0.0989871,
  "tags": {
    "amenity": "pharmacy",
    "name": "Amnex",
    "opening_hours": "Mo-Su 07:00-00:00"
  }
},
{
  "type": "node",
  "id": 5322314854,
  "lat": 5.5955838,
  "lon": -0.1336578,
  "tags": {
    "amenity": "pharmacy",
    "name": "Speed Pharmacy"
  }
},
{
  "type": "node",
  "id": 5331310697,
  "lat": 5.5593212,
  "lon": -0.2226058,
  "tags": {
    "amenity": "pharmacy"
  }
},
{
  "type": "node",
  "id": 5331770567,
  "lat": 4.9206948,
  "lon": -1.7667953,
  "tags": {
    "amenity": "pharmacy"
  }
},
{
  "type": "node",
  "id": 5332182221,
  "lat": 6.6938434,
  "lon": -1.6362970,
  "tags": {
    "addr:street": "Dr Addo Kuffour Avenue",
    "amenity": "pharmacy",
    "healthcare": "pharmacy",
    "name": "Ghanima Pharmacy Limited"
  }
},
{
  "type": "node",
  "id": 5347282825,
  "lat": 6.6852933,
  "lon": -1.5845007,
  "tags": {
    "amenity": "pharmacy",
    "name": "Elite Pharmacy ltd"
  }
},
{
  "type": "node",
  "id": 5349015829,
  "lat": 10.7792563,
  "lon": -0.6931646,
  "tags": {
    "amenity": "clinic",
    "healthcare": "clinic",
    "name": "Duusi CHPS Compound",
    "operator": "Ghana Health Service",
    "operator:wikidata": "Q5555350"
  }
},
{
  "type": "node",
  "id": 5355072423,
  "lat": 6.6799463,
  "lon": -1.6040538,
  "tags": {
    "amenity": "pharmacy",
    "name": "Alpha Duo Pharma Ltd"
  }
},
{
  "type": "node",
  "id": 5358519884,
  "lat": 4.9771869,
  "lon": -2.4151830,
  "tags": {
    "amenity": "clinic",
    "name": "Kamgbunli Clinic"
  }
},
{
  "type": "node",
  "id": 5359291446,
  "lat": 5.3094326,
  "lon": -1.9964090,
  "tags": {
    "amenity": "pharmacy",
    "shop": "chemist"
  }
},
{
  "type": "node",
  "id": 5359420378,
  "lat": 5.3100143,
  "lon": -1.9992819,
  "tags": {
    "amenity": "clinic",
    "name": "Brahabebome Clinic"
  }
},
{
  "type": "node",
  "id": 5364799592,
  "lat": 5.3065028,
  "lon": -1.9913305,
  "tags": {
    "amenity": "clinic",
    "healthcare": "clinic"
  }
},
{
  "type": "node",
  "id": 5396300917,
  "lat": 6.1013264,
  "lon": 1.1474524,
  "tags": {
    "amenity": "pharmacy",
    "shop": "chemist"
  }
},
{
  "type": "node",
  "id": 5404139622,
  "lat": 7.3523770,
  "lon": -2.3450168,
  "tags": {
    "addr:street": "SNNIT-Fiapre Road",
    "amenity": "pharmacy",
    "email": "myokparmacy@yahoo.com",
    "name": "O. K Pharmacy",
    "opening_hours": "Mo-Sa 00:00-24:00; Su 00:00-22:00",
    "phone": "0502201055"
  }
},
{
  "type": "node",
  "id": 5423086824,
  "lat": 6.2901832,
  "lon": -1.9712874,
  "tags": {
    "addr:street": "Datano High-Street",
    "amenity": "pharmacy",
    "email": "peasahkwabenatawiah@gmail.com",
    "name": "Eno Serwaah pharmacy",
    "opening_hours": "24/7",
    "operator": "Moses Amoateng Peasah",
    "phone": "0543431198",
    "website": "http://www.enoserwaahpharmaceuticals.com"
  }
},
{
  "type": "node",
  "id": 5435600812,
  "lat": 5.3110481,
  "lon": -1.9924771,
  "tags": {
    "amenity": "pharmacy",
    "name": "Tonya Pharmacy",
    "opening_hours": "Mo-Sa 07:00-21:00, 09:00-18:00; Su 12:00-21:00"
  }
},
{
  "type": "node",
  "id": 5486353373,
  "lat": 5.5529127,
  "lon": -0.1995926,
  "tags": {
    "amenity": "pharmacy",
    "contact:phone": "+233 267065800",
    "healthcare": "pharmacy",
    "name": "Ebenezer Chemist Limited"
  }
},
{
  "type": "node",
  "id": 5501856321,
  "lat": 5.3144182,
  "lon": -1.9905213,
  "tags": {
    "amenity": "clinic",
    "name": "Nature Health Care Center"
  }
},
{
  "type": "node",
  "id": 5515602856,
  "lat": 5.2839934,
  "lon": -2.0054609,
  "tags": {
    "amenity": "pharmacy",
    "name": "Health Spring Pharmacy"
  }
},
{
  "type": "node",
  "id": 5535380932,
  "lat": 5.5316828,
  "lon": -0.7004953,
  "tags": {
    "amenity": "pharmacy"
  }
},
{
  "type": "node",
  "id": 5535787467,
  "lat": 6.2218955,
  "lon": -0.3655684,
  "tags": {
    "amenity": "pharmacy",
    "name": "CP"
  }
},
{
  "type": "node",
  "id": 5548620423,
  "lat": 5.5835083,
  "lon": -0.1420238,
  "tags": {
    "amenity": "pharmacy",
    "healthcare": "pharmacy"
  }
},
{
  "type": "node",
  "id": 5551059075,
  "lat": 9.2139947,
  "lon": -1.8563603,
  "tags": {
    "amenity": "clinic",
    "name": "Nurse's quarters"
  }
},
{
  "type": "node",
  "id": 5588701518,
  "lat": 5.1150630,
  "lon": -1.2748188,
  "tags": {
    "amenity": "clinic",
    "disabled": "no",
    "name": "Oak Tree Medical Services"
  }
},
{
  "type": "node",
  "id": 5591386722,
  "lat": 6.1296038,
  "lon": 0.7957311,
  "tags": {
    "addr:street": "Dogbatse Avenue",
    "amenity": "clinic",
    "name": "Hoggar Clinic Limited",
    "opening_hours": "24/7",
    "phone": "+233243623474"
  }
},
{
  "type": "node",
  "id": 5627808037,
  "lat": 5.5946388,
  "lon": -0.2333549,
  "tags": {
    "amenity": "pharmacy",
    "healthcare": "pharmacy",
    "name": "Aython Drugs",
    "office": "company"
  }
},
{
  "type": "node",
  "id": 5643500622,
  "lat": 6.6998600,
  "lon": -1.6191897,
  "tags": {
    "addr:street": "Ashanti New Town Road",
    "amenity": "clinic",
    "name": "Dr. Mensah",
    "operator": "Dr. Mensah"
  }
},
{
  "type": "node",
  "id": 5649508154,
  "lat": 4.8904665,
  "lon": -1.9548466,
  "tags": {
    "amenity": "clinic",
    "name": "Gemar Hospital"
  }
},
{
  "type": "node",
  "id": 5656310164,
  "lat": 5.3309311,
  "lon": -2.1456792,
  "tags": {
    "amenity": "clinic",
    "name": "Peposo CHPS"
  }
},
{
  "type": "node",
  "id": 5656359424,
  "lat": 5.4378607,
  "lon": -2.1439981,
  "tags": {
    "amenity": "clinic",
    "name": "Prestea CHPS"
  }
},
{
  "type": "node",
  "id": 5676598273,
  "lat": 5.3019674,
  "lon": -1.9928854,
  "tags": {
    "amenity": "pharmacy",
    "name": "Kendicks Pharmacy Limited"
  }
},
{
  "type": "node",
  "id": 5702634402,
  "lat": 5.0162252,
  "lon": -1.6646342,
  "tags": {
    "amenity": "pharmacy"
  }
},
{
  "type": "node",
  "id": 5705985321,
  "lat": 5.6128857,
  "lon": -0.0889658,
  "tags": {
    "amenity": "clinic",
    "name": "Polyclinic"
  }
},
{
  "type": "node",
  "id": 5708784721,
  "lat": 5.6064469,
  "lon": -0.0861401,
  "tags": {
    "amenity": "pharmacy",
    "name": "Sing Praises"
  }
},
{
  "type": "node",
  "id": 5714066427,
  "lat": 5.6014240,
  "lon": -0.0841606,
  "tags": {
    "amenity": "pharmacy",
    "name": "Etornam Herbal Center",
    "phone": "0262209044"
  }
},
{
  "type": "node",
  "id": 5714073662,
  "lat": 5.5983927,
  "lon": -0.0812179,
  "tags": {
    "addr:street": "Accra-Ashaiman Road",
    "amenity": "pharmacy",
    "name": "Pill Point",
    "opening_hours": "Mo-Su 07:30-14:00, 21:00-21:00",
    "phone": "0200004044",
    "website": "https://pillpointpharmacy.com/"
  }
},
{
  "type": "node",
  "id": 5714073663,
  "lat": 5.6000568,
  "lon": -0.0831915,
  "tags": {
    "amenity": "pharmacy",
    "name": "B.B.S Pharmacy Limited",
    "phone": "0205547264"
  }
},
{
  "type": "node",
  "id": 5714094831,
  "lat": 5.6037136,
  "lon": -0.0866430,
  "tags": {
    "addr:city": "Nungua",
    "amenity": "pharmacy",
    "brand": "Accra",
    "contact:phone": "+233 203221590",
    "name": "Sebatos",
    "opening_hours": "Mo-Sa 07:00-22:00; Su 15:00-22:00",
    "operator": "Sebatos Pharmacy Limited"
  }
},
{
  "type": "node",
  "id": 5715210441,
  "lat": 6.6228188,
  "lon": -1.2169826,
  "tags": {
    "amenity": "pharmacy",
    "name": "Oheneba Pharmacy"
  }
},
{
  "type": "node",
  "id": 5717927636,
  "lat": 5.5573446,
  "lon": -0.1753128,
  "tags": {
    "amenity": "pharmacy",
    "healthcare": "pharmacy",
    "name": "Lloyd's Pharmacy"
  }
},
{
  "type": "node",
  "id": 5718409412,
  "lat": 6.0269096,
  "lon": 0.3754811,
  "tags": {
    "amenity": "pharmacy"
  }
},
{
  "type": "node",
  "id": 5725952521,
  "lat": 5.6411278,
  "lon": -0.1190853,
  "tags": {
    "amenity": "pharmacy",
    "name": "Nola"
  }
},
{
  "type": "node",
  "id": 5726303123,
  "lat": 5.6377095,
  "lon": -0.1619128,
  "tags": {
    "amenity": "clinic",
    "name": "Quality Care"
  }
},
{
  "type": "node",
  "id": 5727975621,
  "lat": 5.6074460,
  "lon": -0.2460546,
  "tags": {
    "amenity": "pharmacy",
    "healthcare": "pharmacy",
    "name": "Op Pharmacy"
  }
},
{
  "type": "node",
  "id": 5727975623,
  "lat": 5.6480385,
  "lon": -0.1790180,
  "tags": {
    "amenity": "pharmacy",
    "healthcare": "pharmacy"
  }
},
{
  "type": "node",
  "id": 5728895262,
  "lat": 5.6812542,
  "lon": -0.1958420,
  "tags": {
    "amenity": "clinic",
    "name": "Urban Medical Research Center"
  }
},
{
  "type": "node",
  "id": 5730097211,
  "lat": 5.6788371,
  "lon": -0.1750694,
  "tags": {
    "amenity": "pharmacy",
    "name": "Aide Chemists",
    "phone": "+233302904534"
  }
},
{
  "type": "node",
  "id": 5731354878,
  "lat": 5.5795350,
  "lon": -0.2472750,
  "tags": {
    "addr:street": "Nii Amasa street",
    "amenity": "pharmacy",
    "branch": "Atico -Bubiashie",
    "brand": "Pharmacy",
    "check_date": "2023-06-10",
    "dispensing": "yes",
    "drive_through": "no",
    "name": "Mary de Rose Pharmacy",
    "payment:cash": "yes",
    "source": "local knowledge",
    "wheelchair": "limited"
  }
},
{
  "type": "node",
  "id": 5732276423,
  "lat": 7.5862380,
  "lon": -2.7854284,
  "tags": {
    "addr:street": "Sampa - Berekum(Benneh Road)",
    "amenity": "clinic",
    "name": "St. Mary’s Eye Clinic",
    "opening_hours": "Mo-Fr 09:00-17:00",
    "operator": "St. Mary’s Hospital"
  }
},
{
  "type": "node",
  "id": 5732666951,
  "lat": 5.6758218,
  "lon": -0.1915603,
  "tags": {
    "amenity": "pharmacy",
    "name": "Belah Pharmacy"
  }
},
{
  "type": "node",
  "id": 5732865813,
  "lat": 5.6097826,
  "lon": -0.1804577,
  "tags": {
    "amenity": "pharmacy",
    "healthcare": "pharmacy",
    "name": "Reanie Chemist Limited"
  }
},
{
  "type": "node",
  "id": 5739266521,
  "lat": 6.6157845,
  "lon": 0.4680631,
  "tags": {
    "addr:street": "Togbe Tawiah",
    "amenity": "pharmacy",
    "check_date:opening_hours": "2024-12-03",
    "healthcare": "pharmacy",
    "name": "Gabriel k Adom",
    "opening_hours:signed": "no",
    "phone": "+233208214140"
  }
},
{
  "type": "node",
  "id": 5741247520,
  "lat": 5.6924729,
  "lon": -0.1714043,
  "tags": {
    "addr:city": "Adanta Accra",
    "addr:street": "Adena La Nkwantanang Boundary Road",
    "amenity": "pharmacy",
    "dispensing": "yes",
    "healthcare": "pharmacy",
    "name": "CureAid",
    "phone": "+233555041104",
    "wheelchair": "no"
  }
},
{
  "type": "node",
  "id": 5746072945,
  "lat": 5.6432464,
  "lon": -0.1132529,
  "tags": {
    "amenity": "pharmacy",
    "name": "Ernest Chemist Limited",
    "phone": "0302902929"
  }
},
{
  "type": "node",
  "id": 5746742547,
  "lat": 6.6897665,
  "lon": -1.6092094,
  "tags": {
    "amenity": "pharmacy",
    "name": "Dipsy Pharmacy",
    "opening_hours": "Mo-Fr 07:00-19:30; Sa 06:45-17:00; closed",
    "phone": "0247675796; 0230525100"
  }
},
{
  "type": "node",
  "id": 5746781474,
  "lat": 6.6897916,
  "lon": -1.6101034,
  "tags": {
    "amenity": "clinic",
    "healthcare": "clinic",
    "name": "St. Edward's Clinic",
    "opening_hours": "Mo-Fr 08:00-20:00; Sa 08:00-13:00"
  }
},
{
  "type": "node",
  "id": 5748042149,
  "lat": 5.5715370,
  "lon": -0.1785305,
  "tags": {
    "amenity": "pharmacy",
    "healthcare": "pharmacy",
    "name": "Late Night Pharmacy"
  }
},
{
  "type": "node",
  "id": 5749720245,
  "lat": 5.6678356,
  "lon": -0.1774716,
  "tags": {
    "amenity": "pharmacy",
    "dispensing": "yes",
    "healthcare": "pharmacy",
    "name": "Pill Point"
  }
},
{
  "type": "node",
  "id": 5751454691,
  "lat": 5.5661853,
  "lon": -0.2335634,
  "tags": {
    "amenity": "pharmacy",
    "email": "regenthealth@hotmail.com",
    "healthcare": "pharmacy",
    "name": "Regent Pharmacy",
    "phone": "+23330226715"
  }
},
{
  "type": "node",
  "id": 5752141742,
  "lat": 5.5701016,
  "lon": -0.2120427,
  "tags": {
    "amenity": "pharmacy",
    "branch": "Accra-Circle",
    "check_date": "2023-04-28",
    "dispensing": "yes",
    "drive_through": "no",
    "healthcare": "pharmacy",
    "name": "Ernest Chemist",
    "payment:cash": "yes",
    "source": "local knowledge",
    "wheelchair": "limited"
  }
},
{
  "type": "node",
  "id": 5752197975,
  "lat": 5.5714395,
  "lon": -0.2157880,
  "tags": {
    "amenity": "pharmacy",
    "branch": "Kwame Nkrumah Circle",
    "check_date": "2023-04-28",
    "dispensing": "yes",
    "drive_through": "no",
    "healthcare": "pharmacy",
    "name": "Dans Chemist",
    "payment:cash": "yes",
    "source": "local knowledge",
    "wheelchair": "limited"
  }
},
{
  "type": "node",
  "id": 5752205059,
  "lat": 5.5823037,
  "lon": -0.2165687,
  "tags": {
    "amenity": "pharmacy",
    "healthcare": "pharmacy"
  }
},
{
  "type": "node",
  "id": 5755779938,
  "lat": 5.5514896,
  "lon": -0.2039394,
  "tags": {
    "amenity": "hospital",
    "healthcare": "hospital",
    "level": "1",
    "name": "Nyaho Medical Centre"
  }
},
{
  "type": "node",
  "id": 5759224255,
  "lat": 5.5477393,
  "lon": -0.3390086,
  "tags": {
    "amenity": "pharmacy"
  }
},
{
  "type": "node",
  "id": 5759607065,
  "lat": 5.5555436,
  "lon": -0.3400994,
  "tags": {
    "amenity": "pharmacy"
  }
},
{
  "type": "node",
  "id": 5761487654,
  "lat": 5.5372239,
  "lon": -0.4061125,
  "tags": {
    "addr:street": "Winneba Road",
    "amenity": "pharmacy"
  }
},
{
  "type": "node",
  "id": 5766799969,
  "lat": 5.6094938,
  "lon": -0.0871886,
  "tags": {
    "amenity": "pharmacy",
    "dispensing": "yes",
    "healthcare": "pharmacy",
    "name": "Health Concept",
    "payment:coins": "yes",
    "payment:notes": "yes"
  }
},
{
  "type": "node",
  "id": 5770056540,
  "lat": 5.6605064,
  "lon": -0.2062095,
  "tags": {
    "amenity": "pharmacy",
    "name": "EVP Pharmacy"
  }
},
{
  "type": "node",
  "id": 5775921566,
  "lat": 5.6405047,
  "lon": -0.2105802,
  "tags": {
    "amenity": "pharmacy",
    "name": "Ed-Joe"
  }
},
{
  "type": "node",
  "id": 5775921569,
  "lat": 5.5660248,
  "lon": -0.1789112,
  "tags": {
    "amenity": "pharmacy",
    "fixme": "check position",
    "healthcare": "pharmacy",
    "name": "Palace Pharmaceuticals"
  }
},
{
  "type": "node",
  "id": 5776863753,
  "lat": 6.0784731,
  "lon": -0.2713897,
  "tags": {
    "amenity": "clinic",
    "name": "Providence Medical Centre"
  }
},
{
  "type": "node",
  "id": 5776863853,
  "lat": 6.0824943,
  "lon": -0.2753886,
  "tags": {
    "addr:street": "Densuano Street",
    "amenity": "clinic",
    "healthcare": "clinic",
    "name": "Newlands Medical Centre"
  }
},
{
  "type": "node",
  "id": 5777113610,
  "lat": 5.6162206,
  "lon": -0.2485636,
  "tags": {
    "addr:city": "Accra",
    "addr:suburb": "Akweteyman",
    "amenity": "pharmacy",
    "dispensing": "yes",
    "emergency": "no",
    "healthcare": "pharmacy",
    "name": "Hebrews Pharmacy Limited",
    "opening_hours": "Mo-Fr 07:30-22:00; Sa, Su 13:00-21:00",
    "phone": "0302937832",
    "source": "Open Cities Accra - Field Survey"
  }
},
{
  "type": "node",
  "id": 5781362108,
  "lat": 5.1135097,
  "lon": -1.2483685,
  "tags": {
    "amenity": "pharmacy",
    "healthcare": "pharmacy",
    "name": "Aseda Pharmaceuticals ltd"
  }
},
{
  "type": "node",
  "id": 5781989254,
  "lat": 5.5376930,
  "lon": -0.4017566,
  "tags": {
    "addr:street": "Winneba Road",
    "amenity": "pharmacy",
    "name": "Pharma Solutions",
    "phone": "0203244071"
  }
},
{
  "type": "node",
  "id": 5790774953,
  "lat": 5.6087417,
  "lon": -0.0758663,
  "tags": {
    "amenity": "pharmacy",
    "name": "Fabby Pharmacy"
  }
},
{
  "type": "node",
  "id": 5794952811,
  "lat": 5.6680847,
  "lon": -0.1818992,
  "tags": {
    "amenity": "pharmacy",
    "name": "St Kem Pharmacy"
  }
},
{
  "type": "node",
  "id": 5799350934,
  "lat": 5.6309611,
  "lon": -0.2191243,
  "tags": {
    "amenity": "pharmacy",
    "name": "Hale"
  }
},
{
  "type": "node",
  "id": 5809255656,
  "lat": 5.6757392,
  "lon": -0.1913681,
  "tags": {
    "amenity": "pharmacy",
    "name": "Liniven Pharmacy",
    "phone": "0244810000"
  }
},
{
  "type": "node",
  "id": 5819906953,
  "lat": 5.6388538,
  "lon": -0.1240158,
  "tags": {
    "addr:city": "Spintex Accra",
    "addr:street": "Spintex Road",
    "amenity": "pharmacy",
    "name": "Biotic Pharmacy",
    "name:it": "Biotic",
    "opening_hours": "24/7",
    "phone": "+233302904700"
  }
},
{
  "type": "node",
  "id": 5824861049,
  "lat": 5.6678207,
  "lon": -0.1885677,
  "tags": {
    "amenity": "pharmacy",
    "healthcare": "pharmacy",
    "name": "Unicom"
  }
},
{
  "type": "node",
  "id": 5825259462,
  "lat": 5.5396332,
  "lon": -0.4032044,
  "tags": {
    "amenity": "pharmacy"
  }
},
{
  "type": "node",
  "id": 5831982644,
  "lat": 9.2191345,
  "lon": -1.8579042,
  "tags": {
    "amenity": "pharmacy",
    "healthcare": "pharmacy",
    "name": "Mohammad Pharmacy",
    "phone": "0246405617"
  }
},
{
  "type": "node",
  "id": 5832300522,
  "lat": 9.2193258,
  "lon": -1.8592550,
  "tags": {
    "amenity": "pharmacy",
    "healthcare": "pharmacy",
    "name": "Mutaru Chemist"
  }
},
{
  "type": "node",
  "id": 5832704543,
  "lat": 9.2194580,
  "lon": -1.8582225,
  "tags": {
    "amenity": "pharmacy",
    "healthcare": "pharmacy",
    "name": "Alhaji Chemist",
    "phone": "0557588021"
  }
},
{
  "type": "node",
  "id": 5846864746,
  "lat": 5.1311773,
  "lon": -1.2727752,
  "tags": {
    "amenity": "clinic",
    "name": "Abura Clinic"
  }
},
{
  "type": "node",
  "id": 5859872286,
  "lat": 4.9001208,
  "lon": -1.7640048,
  "tags": {
    "addr:housenumber": "13",
    "addr:postcode": "MC 1613",
    "addr:street": "Carsely Hayford Avenue",
    "amenity": "pharmacy",
    "email": "info@nock.com",
    "name": "Nock Chemists Limited",
    "opening_hours": "Mo-Sa 07:00-21:00",
    "operator": "Nuako Family",
    "phone": "+2333123738"
  }
},
{
  "type": "node",
  "id": 5868518756,
  "lat": 5.6426385,
  "lon": 0.0014169,
  "tags": {
    "amenity": "clinic",
    "healthcare": "clinic",
    "name": "Port Medical Centre"
  }
},
{
  "type": "node",
  "id": 5876940066,
  "lat": 6.8049166,
  "lon": -2.5141844,
  "tags": {
    "amenity": "pharmacy",
    "name": "G- EME Pharmacy and Diagnostic Centre"
  }
},
{
  "type": "node",
  "id": 5881543451,
  "lat": 5.6829590,
  "lon": -0.1934810,
  "tags": {
    "amenity": "pharmacy",
    "name": "Hobet Pharmacy",
    "opening_hours": "Mo-Sa 07:00-21:30; Su 13:00-21:00",
    "phone": "+233243621502"
  }
},
{
  "type": "node",
  "id": 5892839589,
  "lat": 5.5902486,
  "lon": -0.1816080,
  "tags": {
    "amenity": "doctors",
    "check_date": "2023-06-23",
    "healthcare": "doctor",
    "name": "G2 Medical Laboratory Services",
    "opening_hours": "Mo-Su 06:00-00:00"
  }
},
{
  "type": "node",
  "id": 5893538876,
  "lat": 5.5654645,
  "lon": -0.1790649,
  "tags": {
    "amenity": "pharmacy",
    "healthcare": "pharmacy",
    "name": "24hrs Pharmacy"
  }
},
{
  "type": "node",
  "id": 5912226025,
  "lat": 5.6366935,
  "lon": -0.2379193,
  "tags": {
    "addr:city": "Accra",
    "addr:community": "Alogboshie",
    "addr:street": "Toshway Hotel Street",
    "addr:suburb": "Mile 7",
    "amenity": "doctors",
    "bed_count": "none",
    "dispensing": "yes",
    "emergency": "yes",
    "healthcare": "optometrist",
    "healthcare:speciality": "ophthalmology",
    "name": "Mk Eye Center",
    "opening_hours": "Mo-Su 09:00-21:00",
    "operator": "private_profit",
    "operator_name": "Dr. Kyeremeh",
    "phone": "+233558156929",
    "shop": "optician",
    "source": "Open Cities Accra - Field Survey"
  }
},
{
  "type": "node",
  "id": 5920361460,
  "lat": 5.6844419,
  "lon": -0.0258781,
  "tags": {
    "amenity": "doctors"
  }
},
{
  "type": "node",
  "id": 5923783047,
  "lat": 5.6190924,
  "lon": -0.2501499,
  "tags": {
    "amenity": "pharmacy",
    "healthcare": "pharmacy",
    "name": "Healthmark Pharmacy",
    "phone": "0204310031"
  }
},
{
  "type": "node",
  "id": 5938286600,
  "lat": 7.7931639,
  "lon": -0.0602640,
  "tags": {
    "amenity": "pharmacy",
    "name": "T T medicine shop"
  }
},
{
  "type": "node",
  "id": 5955240783,
  "lat": 5.5709345,
  "lon": -0.2325917,
  "tags": {
    "amenity": "pharmacy",
    "check_date": "2023-09-29",
    "dispensing": "yes",
    "drive_through": "no",
    "payment:cash": "yes",
    "wheelchair": "limited"
  }
},
{
  "type": "node",
  "id": 5955274013,
  "lat": 5.5876191,
  "lon": -0.2329546,
  "tags": {
    "amenity": "pharmacy",
    "name": "Kin-Ada",
    "phone": "0302941522"
  }
},
{
  "type": "node",
  "id": 5956685479,
  "lat": 5.6005416,
  "lon": -0.2389855,
  "tags": {
    "amenity": "pharmacy",
    "healthcare": "pharmacy",
    "name": "Septal",
    "phone": "0302231410"
  }
},
{
  "type": "node",
  "id": 5956713515,
  "lat": 5.5698955,
  "lon": -0.2336629,
  "tags": {
    "amenity": "pharmacy",
    "name": "Ballis Pharmacy"
  }
},
{
  "type": "node",
  "id": 5959485082,
  "lat": 5.5990814,
  "lon": -0.2350730,
  "tags": {
    "amenity": "pharmacy",
    "healthcare": "pharmacy",
    "name": "Pharma Solutions"
  }
},
{
  "type": "node",
  "id": 5959485125,
  "lat": 5.5796623,
  "lon": -0.2283582,
  "tags": {
    "amenity": "pharmacy",
    "name": "Free Mart Pharmacy"
  }
},
{
  "type": "node",
  "id": 5959485126,
  "lat": 5.5842416,
  "lon": -0.2312334,
  "tags": {
    "amenity": "pharmacy",
    "healthcare": "pharmacy",
    "name": "PNT Pharmacy"
  }
},
{
  "type": "node",
  "id": 5963528280,
  "lat": 5.6028609,
  "lon": -0.2419394,
  "tags": {
    "amenity": "pharmacy",
    "healthcare": "pharmacy",
    "name": "Nesta",
    "opening_hours": "Mo-Sa 09:00-21:00"
  }
},
{
  "type": "node",
  "id": 5965868710,
  "lat": 5.6092160,
  "lon": -0.2457014,
  "tags": {
    "addr:city": "Accra",
    "addr:community": "Nii Boi Town",
    "addr:street": "Teiku Baah Street",
    "addr:suburb": "Akweteyman",
    "amenity": "pharmacy",
    "healthcare": "pharmacy",
    "name": "Revman Pharmacy",
    "phone": "0244209312",
    "source": "Open Cities Accra - Field Survey"
  }
},
{
  "type": "node",
  "id": 5966273994,
  "lat": 5.5950592,
  "lon": -0.2330656,
  "tags": {
    "amenity": "pharmacy",
    "healthcare": "pharmacy",
    "name": "3A Pharmacy"
  }
},
{
  "type": "node",
  "id": 5969633908,
  "lat": 5.6216908,
  "lon": -0.2307753,
  "tags": {
    "addr:city": "Accra",
    "addr:community": "Achimota Overhead",
    "addr:suburb": "Alogboshie",
    "amenity": "pharmacy",
    "healthcare": "pharmacy",
    "name": "Phersons Pharmacy",
    "source": "Open Cities Accra - Field Survey"
  }
},
{
  "type": "node",
  "id": 5984134810,
  "lat": 7.3330164,
  "lon": -2.3215114,
  "tags": {
    "amenity": "clinic",
    "name": "Addis Medical Laboratory"
  }
},
{
  "type": "node",
  "id": 5987250116,
  "lat": 5.6305756,
  "lon": -0.2350594,
  "tags": {
    "addr:city": "Accra",
    "amenity": "pharmacy",
    "healthcare": "pharmacy",
    "name": "Rock Chemist",
    "source": "Open Cities Accra - Field Survey"
  }
},
{
  "type": "node",
  "id": 5991635395,
  "lat": 5.5993602,
  "lon": -0.1878245,
  "tags": {
    "amenity": "pharmacy",
    "healthcare": "pharmacy",
    "name": "Adepa Pharmacy"
  }
},
{
  "type": "node",
  "id": 5995822045,
  "lat": 5.5875796,
  "lon": -0.2354186,
  "tags": {
    "amenity": "pharmacy"
  }
},
{
  "type": "node",
  "id": 6016629534,
  "lat": 5.9215504,
  "lon": -0.0517883,
  "tags": {
    "amenity": "pharmacy",
    "name": "Biolink Pharmacy",
    "phone": "0244365922"
  }
},
{
  "type": "node",
  "id": 6016629538,
  "lat": 6.1551823,
  "lon": 0.0607029,
  "tags": {
    "amenity": "pharmacy",
    "name": "Vir-Tee Pharmacy"
  }
},
{
  "type": "node",
  "id": 6016629738,
  "lat": 6.5942676,
  "lon": 0.4718960,
  "tags": {
    "amenity": "pharmacy",
    "healthcare": "pharmacy",
    "name": "Yomefa Pharmacy",
    "opening_hours": "Mo-Su 07:00-22:00"
  }
},
{
  "type": "node",
  "id": 6019652556,
  "lat": 5.7364094,
  "lon": -0.0142690,
  "tags": {
    "amenity": "pharmacy",
    "name": "OBM Pharmacy"
  }
},
{
  "type": "node",
  "id": 6019717328,
  "lat": 5.7563962,
  "lon": -0.0062620,
  "tags": {
    "amenity": "clinic",
    "name": "Eastwing Clinic"
  }
},
{
  "type": "node",
  "id": 6019717336,
  "lat": 5.7412938,
  "lon": -0.0134899,
  "tags": {
    "amenity": "pharmacy",
    "name": "La Famille Chemist"
  }
},
{
  "type": "node",
  "id": 6019717391,
  "lat": 5.7907414,
  "lon": 0.0027746,
  "tags": {
    "amenity": "pharmacy"
  }
},
{
  "type": "node",
  "id": 6031380950,
  "lat": 5.7307970,
  "lon": 0.0277715,
  "tags": {
    "amenity": "pharmacy",
    "check_date": "2023-10-13",
    "name": "Rockwell Pharmacy And Mart"
  }
},
{
  "type": "node",
  "id": 6032340907,
  "lat": 5.8930467,
  "lon": 0.9856250,
  "tags": {
    "amenity": "pharmacy",
    "healthcare": "pharmacy"
  }
},
{
  "type": "node",
  "id": 6033584886,
  "lat": 6.6917774,
  "lon": -1.5475999,
  "tags": {
    "amenity": "pharmacy",
    "name": "Laud K Pharmacy"
  }
},
{
  "type": "node",
  "id": 6036650216,
  "lat": 6.6879024,
  "lon": -1.5837745,
  "tags": {
    "amenity": "pharmacy",
    "name": "MAG Pharmacy"
  }
},
{
  "type": "node",
  "id": 6036653467,
  "lat": 6.6709824,
  "lon": -1.6377614,
  "tags": {
    "amenity": "pharmacy",
    "name": "Ernest Chemist"
  }
},
{
  "type": "node",
  "id": 6037962270,
  "lat": 6.6890214,
  "lon": -1.6135559,
  "tags": {
    "amenity": "pharmacy",
    "name": "Sarps Pharmacy",
    "phone": "0244068682"
  }
},
{
  "type": "node",
  "id": 6037962463,
  "lat": 5.9991558,
  "lon": 0.5960627,
  "tags": {
    "amenity": "pharmacy",
    "healthcare": "pharmacy",
    "name": "Adepharma Limited - Wholesale Only"
  }
},
{
  "type": "node",
  "id": 6050981938,
  "lat": 5.5660620,
  "lon": -0.1899149,
  "tags": {
    "amenity": "pharmacy",
    "name": "Ernest Chemist Limited",
    "name:it": "Ernest"
  }
},
{
  "type": "node",
  "id": 6058330729,
  "lat": 10.8125898,
  "lon": -0.0847404,
  "tags": {
    "amenity": "doctors",
    "healthcare": "hospital"
  }
},
{
  "type": "node",
  "id": 6072524768,
  "lat": 5.5856717,
  "lon": -0.1759290,
  "tags": {
    "amenity": "pharmacy",
    "check_date": "2023-05-11",
    "dispensing": "yes",
    "drive_through": "no",
    "healthcare": "pharmacy",
    "name": "MayDay Pharmacy",
    "payment:cash": "yes",
    "source": "local knowledge",
    "wheelchair": "limited"
  }
},
{
  "type": "node",
  "id": 6088776924,
  "lat": 6.7157660,
  "lon": -1.6337952,
  "tags": {
    "amenity": "pharmacy",
    "dispensing": "yes",
    "name": "Casablanca Pharmacy"
  }
},
{
  "type": "node",
  "id": 6091142233,
  "lat": 6.6976838,
  "lon": -1.7022028,
  "tags": {
    "amenity": "pharmacy",
    "name": "Albar Pharmacy"
  }
},
{
  "type": "node",
  "id": 6091146473,
  "lat": 6.6979043,
  "lon": -1.6911193,
  "tags": {
    "amenity": "pharmacy",
    "name": "Done Care Pharmacy"
  }
},
{
  "type": "node",
  "id": 6091146476,
  "lat": 6.6997152,
  "lon": -1.6506044,
  "tags": {
    "amenity": "pharmacy",
    "name": "Western Pharmacy"
  }
},
{
  "type": "node",
  "id": 6091147323,
  "lat": 6.6986672,
  "lon": -1.7075590,
  "tags": {
    "amenity": "pharmacy",
    "name": "Vero Chemists Limited"
  }
},
{
  "type": "node",
  "id": 6091147586,
  "lat": 6.7087918,
  "lon": -1.6365396,
  "tags": {
    "amenity": "pharmacy",
    "name": "Ernest Chemist"
  }
},
{
  "type": "node",
  "id": 6095208031,
  "lat": 5.7722671,
  "lon": -0.0050862,
  "tags": {
    "addr:city": "Mataheko,Tema",
    "amenity": "clinic",
    "healthcare": "yes",
    "name": "Omari Medical Centre",
    "opening_hours": "24/7",
    "phone": "+233303910217",
    "wheelchair": "yes"
  }
},
{
  "type": "node",
  "id": 6095220985,
  "lat": 5.7728011,
  "lon": -0.0012935,
  "tags": {
    "addr:city": "Tema",
    "addr:suburb": "Mataheko",
    "amenity": "pharmacy",
    "dispensing": "yes",
    "healthcare": "pharmacy",
    "name": "Senes Pharmacy",
    "opening_hours": "Mo-Su 09:00-21:00",
    "payment:cash": "yes",
    "phone": "+233208155361"
  }
},
{
  "type": "node",
  "id": 6095245468,
  "lat": 5.7745475,
  "lon": 0.0013797,
  "tags": {
    "addr:city": "Tema",
    "addr:suburb": "Mataheko",
    "amenity": "pharmacy",
    "dispensing": "yes",
    "healthcare": "pharmacy",
    "name": "P.A. Mamattah Chemical Licensed Chemical Seller",
    "opening_hours": "Mo-Su 09:00-21:00",
    "phone": "+233244378400"
  }
},
{
  "type": "node",
  "id": 6100969250,
  "lat": 5.6051659,
  "lon": -0.2030474,
  "tags": {
    "amenity": "pharmacy",
    "name": "Nardorg Pharmacy"
  }
},
{
  "type": "node",
  "id": 6109998117,
  "lat": 5.6763602,
  "lon": -0.1509529,
  "tags": {
    "amenity": "pharmacy",
    "dispensing": "yes",
    "healthcare": "pharmacy",
    "name": "Magpat Pharmacy",
    "source": "mapillary"
  }
},
{
  "type": "node",
  "id": 6110516415,
  "lat": 5.6503333,
  "lon": -0.1503631,
  "tags": {
    "amenity": "pharmacy",
    "dispensing": "yes",
    "healthcare": "pharmacy"
  }
},
{
  "type": "node",
  "id": 6115657385,
  "lat": 5.6005147,
  "lon": -0.2006455,
  "tags": {
    "amenity": "pharmacy",
    "healthcare": "pharmacy",
    "name": "1st Champions Pharmacy"
  }
},
{
  "type": "node",
  "id": 6132175109,
  "lat": 5.6081930,
  "lon": -0.2377348,
  "tags": {
    "amenity": "pharmacy",
    "healthcare": "pharmacy",
    "name": "Josly Pharmacy Limited"
  }
},
{
  "type": "node",
  "id": 6160907673,
  "lat": 5.6060267,
  "lon": -0.2513339,
  "tags": {
    "amenity": "pharmacy",
    "check_date": "2025-07-25",
    "check_date:opening_hours": "2025-07-25",
    "dispensing": "yes",
    "drive_through": "no",
    "healthcare": "pharmacy",
    "name": "Ke-nash Pharmacy",
    "opening_hours": "Mo-Sa,PH 07:00-11:00",
    "payment:cash": "yes",
    "source": "local knowledge",
    "wheelchair": "limited"
  }
},
{
  "type": "node",
  "id": 6166883975,
  "lat": 6.7289428,
  "lon": -1.6438374,
  "tags": {
    "amenity": "pharmacy",
    "check_date:opening_hours": "2021-12-28",
    "email": "saforo500@yahoo.com",
    "name": "Trekanet Pharmacy",
    "opening_hours": "Mo-Sa 08:00-21:30; Su 12:00-21:30",
    "wheelchair": "no"
  }
},
{
  "type": "node",
  "id": 6173271978,
  "lat": 5.7545405,
  "lon": 0.0469545,
  "tags": {
    "amenity": "clinic",
    "name": "Codia Clinic"
  }
},
{
  "type": "node",
  "id": 6186056577,
  "lat": 6.0923914,
  "lon": 1.0741066,
  "tags": {
    "amenity": "clinic",
    "health_amenity:type": "first_aid_kit",
    "name": "Emergency Response Center",
    "operator": "Ghana Red Cross Society"
  }
},
{
  "type": "node",
  "id": 6189309689,
  "lat": 6.1186148,
  "lon": 1.1886932,
  "tags": {
    "amenity": "pharmacy",
    "name": "Alpat Pharmacy Limited"
  }
},
{
  "type": "node",
  "id": 6195403488,
  "lat": 5.5759148,
  "lon": -0.2086516,
  "tags": {
    "amenity": "pharmacy"
  }
},
{
  "type": "node",
  "id": 6198608186,
  "lat": 5.5818167,
  "lon": -0.2083204,
  "tags": {
    "amenity": "pharmacy",
    "healthcare": "pharmacy",
    "name": "Emmasel Pharmacy"
  }
},
{
  "type": "node",
  "id": 6198695885,
  "lat": 5.5836669,
  "lon": -0.2083915,
  "tags": {
    "amenity": "pharmacy",
    "healthcare": "pharmacy",
    "name": "Chara Pharmacy"
  }
},
{
  "type": "node",
  "id": 6213041912,
  "lat": 5.5444776,
  "lon": -0.2063852,
  "tags": {
    "amenity": "clinic",
    "healthcare": "clinic",
    "name": "Club Road Clinic"
  }
},
{
  "type": "node",
  "id": 6215799885,
  "lat": 5.5452885,
  "lon": -0.2125989,
  "tags": {
    "amenity": "pharmacy",
    "name": "Hills Pharmacy"
  }
},
{
  "type": "node",
  "id": 6217956936,
  "lat": 5.5668626,
  "lon": -0.2147421,
  "tags": {
    "addr:street": "Kwame Nkrumah Avenue",
    "amenity": "pharmacy",
    "check_date": "2023-06-05",
    "dispensing": "yes",
    "drive_through": "no",
    "healthcare": "pharmacy",
    "name": "East Cantoments Pharmacy Retail",
    "payment:cash": "yes",
    "source": "local knowledge",
    "wheelchair": "limited"
  }
},
{
  "type": "node",
  "id": 6218840085,
  "lat": 5.5446575,
  "lon": -0.2138420,
  "tags": {
    "amenity": "pharmacy",
    "name": "Syrene Health Services"
  }
},
{
  "type": "node",
  "id": 6226204623,
  "lat": 4.9019648,
  "lon": -1.7669585,
  "tags": {
    "amenity": "pharmacy",
    "name": "EFS-ESS Pharmacy"
  }
},
{
  "type": "node",
  "id": 6233786941,
  "lat": 5.7188955,
  "lon": -0.1719420,
  "tags": {
    "amenity": "pharmacy",
    "name": "Health Lover",
    "phone": "+233 24 454 5969"
  }
},
{
  "type": "node",
  "id": 6234120412,
  "lat": 5.6858032,
  "lon": -0.1509517,
  "tags": {
    "amenity": "pharmacy",
    "name": "Eri Pharma Ltd"
  }
},
{
  "type": "node",
  "id": 6234158807,
  "lat": 5.7028992,
  "lon": -0.1506608,
  "tags": {
    "amenity": "pharmacy",
    "name": "Aide Pharmacy"
  }
},
{
  "type": "node",
  "id": 6235565286,
  "lat": 6.6781445,
  "lon": 0.3142734,
  "tags": {
    "amenity": "clinic",
    "healthcare": "clinic",
    "name": "Kpeve New Town Health Center"
  }
},
{
  "type": "node",
  "id": 6247611198,
  "lat": 5.5649200,
  "lon": -0.2345585,
  "tags": {
    "amenity": "pharmacy",
    "healthcare": "pharmacy",
    "name": "Nakopat Pharmacy"
  }
},
{
  "type": "node",
  "id": 6253492898,
  "lat": 5.6977946,
  "lon": -0.1468589,
  "tags": {
    "amenity": "pharmacy",
    "name": "Aviation Road Pharmacy"
  }
},
{
  "type": "node",
  "id": 6253504385,
  "lat": 5.6858772,
  "lon": -0.1657648,
  "tags": {
    "amenity": "pharmacy",
    "name": "Nissi Pharmacy"
  }
},
{
  "type": "node",
  "id": 6253505995,
  "lat": 5.6838704,
  "lon": -0.1657428,
  "tags": {
    "amenity": "pharmacy",
    "name": "Medmina Pharmacy"
  }
},
{
  "type": "node",
  "id": 6256037003,
  "lat": 6.0164575,
  "lon": -0.0778634,
  "tags": {
    "amenity": "pharmacy",
    "name": "Daniel A. Tetteh ( Awokye Drug Store)"
  }
},
{
  "type": "node",
  "id": 6256498497,
  "lat": 6.1177538,
  "lon": -0.2347289,
  "tags": {
    "amenity": "pharmacy",
    "name": "Aboabo Drug Store"
  }
},
{
  "type": "node",
  "id": 6256580101,
  "lat": 6.0918788,
  "lon": -0.2553910,
  "tags": {
    "amenity": "pharmacy",
    "name": "Pharmacy Relics"
  }
},
{
  "type": "node",
  "id": 6256615236,
  "lat": 6.0953855,
  "lon": -0.2564080,
  "tags": {
    "amenity": "pharmacy",
    "healthcare": "pharmacy",
    "name": "TC Pharmacy"
  }
},
{
  "type": "node",
  "id": 6257562446,
  "lat": 6.0978372,
  "lon": -0.2608407,
  "tags": {
    "amenity": "clinic",
    "healthcare": "clinic",
    "name": "Oman Clinic"
  }
},
{
  "type": "node",
  "id": 6261963935,
  "lat": 5.5674737,
  "lon": -0.2573862,
  "tags": {
    "addr:street": "Dansoman Curve Road",
    "air_conditioning": "yes",
    "amenity": "clinic",
    "check_date": "2023-06-10",
    "healthcare": "clinic",
    "healthcare:speciality": "general",
    "name": "Quantum Medical Centre and Eye Clinic",
    "operator:type": "private",
    "payment:cash": "yes",
    "source": "local knowledge",
    "wheelchair": "limited"
  }
},
{
  "type": "node",
  "id": 6261963936,
  "lat": 5.5729043,
  "lon": -0.2540715,
  "tags": {
    "addr:street": "Dansoman Road",
    "amenity": "pharmacy",
    "check_date": "2023-06-10",
    "dispensing": "yes",
    "drive_through": "no",
    "name": "Alive Pharmaceuticals (Wholesale)",
    "operator": "Alive Pharmaceuticals Ghana Limited",
    "payment:cash": "yes",
    "source": "local knowledge",
    "wheelchair": "limited"
  }
},
{
  "type": "node",
  "id": 6266640142,
  "lat": 5.7363698,
  "lon": -0.3594848,
  "tags": {
    "amenity": "clinic",
    "name": "Kotoku Clinic"
  }
},
{
  "type": "node",
  "id": 6274427264,
  "lat": 6.0882694,
  "lon": -0.2601820,
  "tags": {
    "amenity": "clinic",
    "healthcare": "clinic",
    "name": "CDC Hospital (Cosmas- Damien Clinic)",
    "opening_hours": "Mo-Su 00:00+"
  }
},
{
  "type": "node",
  "id": 6277014897,
  "lat": 5.6147579,
  "lon": -0.2444351,
  "tags": {
    "addr:city": "Accra",
    "addr:community": "Container",
    "addr:street": "Tackie Yaoboi Street",
    "addr:suburb": "Akweteyman",
    "amenity": "pharmacy",
    "dispensing": "yes",
    "name": "Denis Donkor Chemist",
    "operator": "private_profit",
    "phone": "0208864671",
    "source": "Open Cities Accra - Field Survey"
  }
},
{
  "type": "node",
  "id": 6277014898,
  "lat": 5.6157189,
  "lon": -0.2439415,
  "tags": {
    "addr:city": "Accra",
    "addr:community": "Akweteyman",
    "addr:street": "Tackie Yaoboi Street",
    "addr:suburb": "Nii Boi Town",
    "amenity": "pharmacy",
    "emergency": "no",
    "name": "Nyame ne Hene Herbal",
    "operator": "private_profit",
    "phone": "0243577475",
    "source": "Open Cities Accra / GARID- Field Survey"
  }
},
{
  "type": "node",
  "id": 6277015915,
  "lat": 5.6168827,
  "lon": -0.2424288,
  "tags": {
    "addr:city": "Accra",
    "addr:community": "Transformer",
    "addr:street": "Kolente Street",
    "addr:suburb": "Akweteyman",
    "amenity": "pharmacy",
    "description": "small chemical shop",
    "dispensing": "no",
    "emergency": "no",
    "name": "Elizabeth Oppong License Chemical Shop",
    "opening_hours": "Mo-Sa 08:00-18:00",
    "operator": "private_profit",
    "shop": "chemist",
    "source": "Open Cities Accra - Field Survey"
  }
},
{
  "type": "node",
  "id": 6278004864,
  "lat": 5.5819067,
  "lon": -0.2302298,
  "tags": {
    "amenity": "pharmacy",
    "name": "Seyama Pharmaceuticals"
  }
},
{
  "type": "node",
  "id": 6279110346,
  "lat": 5.6136103,
  "lon": -0.2401920,
  "tags": {
    "addr:city": "Accra",
    "addr:community": "Akweteyman Zongo",
    "addr:street": "Dzagble Avenue",
    "addr:suburb": "Akweteyman",
    "amenity": "clinic",
    "dispensing": "yes",
    "emergency": "no",
    "healthcare": "clinic",
    "name": "Edward Attah Asare",
    "operator": "private_profit",
    "operator_name": "Edward Attah Asare",
    "source": "Open Cities Accra / GARID- Field Survey"
  }
},
{
  "type": "node",
  "id": 6279110347,
  "lat": 5.6176250,
  "lon": -0.2366886,
  "tags": {
    "addr:city": "Accra",
    "addr:community": "New Achimota",
    "addr:street": "Ruby's Street",
    "addr:suburb": "Akweteyman",
    "amenity": "pharmacy",
    "dispensing": "yes",
    "emergency": "yes",
    "healthcare": "pharmacy",
    "name": "Excel Pharmacy and Cosmetics",
    "opening_hours": "Mo-Sa 08:00-18:00",
    "operator": "private_profit",
    "operator_name": "Exxell",
    "shop": "cosmetics",
    "source": "Open Cities Accra - Field Survey"
  }
},
{
  "type": "node",
  "id": 6279110348,
  "lat": 5.6154238,
  "lon": -0.2396658,
  "tags": {
    "addr:city": "Accra",
    "addr:community": "Akweteyman Zongo",
    "addr:street": "Tienyo Street",
    "addr:suburb": "Akweteyman",
    "amenity": "pharmacy",
    "dispensing": "yes",
    "emergency": "no",
    "name": "Weseh Chemical Store",
    "opening_hours": "Mo-Sa 07:00-22:00; Su 14:00-22:00",
    "operator": "private_profit",
    "source": "Open Cities Accra / GARID- Field Survey"
  }
},
{
  "type": "node",
  "id": 6279110349,
  "lat": 5.6158448,
  "lon": -0.2373160,
  "tags": {
    "addr:city": "Accra",
    "addr:community": "New Achimota",
    "addr:street": "Tienyo Street",
    "addr:suburb": "Akweteyman",
    "amenity": "pharmacy",
    "dispensing": "yes",
    "emergency": "no",
    "healthcare": "pharmacy",
    "name": "Adonai Grace Pharmacy",
    "opening_hours": "Mo-Sa 07:00-22:00; Su 14:00-22:00",
    "operator": "private_profit",
    "phone": "0302411879",
    "source": "Open Cities Accra / GARID- Field Survey"
  }
},
{
  "type": "node",
  "id": 6281690204,
  "lat": 6.1029224,
  "lon": -0.2664831,
  "tags": {
    "amenity": "pharmacy",
    "healthcare": "pharmacy",
    "name": "Roman Pharmacy Limited",
    "phone": "0243005365"
  }
},
{
  "type": "node",
  "id": 6283465058,
  "lat": 5.6104372,
  "lon": -0.2379649,
  "tags": {
    "addr:city": "Accra",
    "addr:community": "Akweteyman",
    "addr:street": "Tshuapa Street",
    "addr:suburb": "Akweteyman",
    "amenity": "pharmacy",
    "dispensing": "yes",
    "emergency": "no",
    "healthcare": "pharmacy",
    "name": "Esther's Pharmacy Shop",
    "opening_hours": "Mo-Sa 08:00-18:00",
    "operator": "private_profit",
    "operator_name": "Esther Darku",
    "phone": "02011358171",
    "source": "Open Cities Accra - Field Survey"
  }
},
{
  "type": "node",
  "id": 6283465059,
  "lat": 5.6113630,
  "lon": -0.2373339,
  "tags": {
    "addr:city": "Accra",
    "addr:community": "Akweteyman",
    "addr:street": "Obomou Street",
    "addr:suburb": "Akweteyman",
    "amenity": "pharmacy",
    "dispensing": "yes",
    "emergency": "no",
    "healthcare": "pharmacy",
    "name": "Luckies Pharmacy",
    "opening_hours": "Mo-Sa 08:00-18:00",
    "operator": "private_profit",
    "operator_name": "Luckie",
    "source": "Open Cities Accra - Field Survey"
  }
},
{
  "type": "node",
  "id": 6285113074,
  "lat": 5.6134980,
  "lon": -0.2357984,
  "tags": {
    "addr:city": "Accra",
    "addr:street": "Kwashie Bezrot Street",
    "addr:suburb": "Akweteyman",
    "amenity": "pharmacy",
    "description": "over the counter medical seller",
    "dispensing": "yes",
    "emergency": "no",
    "name": "Cardinal Mensah",
    "opening_hours": "Mo-Su 09:00-21:00",
    "operator": "private_profit",
    "source": "Open Cities Accra - Field Survey"
  }
},
{
  "type": "node",
  "id": 6285113296,
  "lat": 5.6116631,
  "lon": -0.2335108,
  "tags": {
    "addr:city": "Accra",
    "addr:street": "Ayee Ayee Fee Avenue",
    "addr:suburb": "Akweteyman",
    "amenity": "doctors",
    "healthcare": "doctor",
    "name": "Lifeview Medical Laboratory",
    "phone": "0302238777",
    "shop": "chemist",
    "source": "Open Cities Accra - Field Survey"
  }
},
{
  "type": "node",
  "id": 6288620693,
  "lat": 6.0884965,
  "lon": -0.2686479,
  "tags": {
    "amenity": "clinic",
    "name": "Koforidua Clinic"
  }
},
{
  "type": "node",
  "id": 6290813210,
  "lat": 5.6113988,
  "lon": -0.2439209,
  "tags": {
    "addr:city": "Accra",
    "addr:community": "Lapaz Old Station",
    "addr:street": "Ofori Tibo Avenue",
    "addr:suburb": "Akweteyman",
    "amenity": "pharmacy",
    "dispensing": "yes",
    "emergency": "no",
    "healthcare": "pharmacy",
    "name": "Rich Pharmacy",
    "opening_hours": "Mo-Su 09:00-21:00",
    "operator": "private_profit",
    "operator_name": "Rich",
    "source": "Open Cities Accra - Field Survey"
  }
},
{
  "type": "node",
  "id": 6290813211,
  "lat": 5.6125644,
  "lon": -0.2418511,
  "tags": {
    "addr:city": "Accra",
    "addr:community": "Akweteyman",
    "addr:suburb": "Akweteyman",
    "amenity": "pharmacy",
    "dispensing": "yes",
    "emergency": "no",
    "healthcare": "pharmacy",
    "name": "Francisca Mensah",
    "opening_hours": "Mo-Su 08:00-08:00",
    "operator": "private_profit",
    "operator_name": "franscisca",
    "source": "Open Cities Accra - Field Survey"
  }
},
{
  "type": "node",
  "id": 6290813212,
  "lat": 5.6090016,
  "lon": -0.2444046,
  "tags": {
    "addr:city": "Accra",
    "addr:community": "Lapaz Old Station",
    "addr:street": "Abetei Street",
    "addr:suburb": "Akweteyman",
    "amenity": "pharmacy",
    "dispensing": "yes",
    "emergency": "no",
    "healthcare": "pharmacy",
    "name": "Nikos Pharmacy",
    "opening_hours": "Mo-Su 09:00-21:00",
    "operator": "private_profit",
    "operator_name": "Niko",
    "source": "Open Cities Accra - Field Survey"
  }
},
{
  "type": "node",
  "id": 6290813213,
  "lat": 5.6102627,
  "lon": -0.2428150,
  "tags": {
    "addr:city": "Accra",
    "addr:community": "Nii Boi Town",
    "addr:street": "Onyaa Kwashie Street",
    "addr:suburb": "Akweteyman",
    "amenity": "pharmacy",
    "dispensing": "yes",
    "emergency": "no",
    "operator": "private_profit",
    "source": "Open Cities Accra - Field Survey"
  }
},
{
  "type": "node",
  "id": 6290813562,
  "lat": 5.6124819,
  "lon": -0.2430863,
  "tags": {
    "addr:city": "Accra",
    "addr:community": "Akweteyman",
    "addr:street": "Kwashie Bezrot Street",
    "addr:suburb": "Akweteyman",
    "amenity": "pharmacy",
    "healthcare": "pharmacy",
    "name": "Auguelix Herbal Shop",
    "phone": "0277449947",
    "source": "Open Cities Accra / GARID- Field Survey"
  }
},
{
  "type": "node",
  "id": 6292744802,
  "lat": 5.6477156,
  "lon": -0.0026608,
  "tags": {
    "amenity": "clinic",
    "healthcare": "clinic",
    "name": "TMA Maternity and Children's Clinic",
    "opening_hours": "24/7"
  }
},
{
  "type": "node",
  "id": 6293319260,
  "lat": 5.7014775,
  "lon": -0.1719907,
  "tags": {
    "amenity": "pharmacy",
    "name": "Adenta Pharmacy"
  }
},
{
  "type": "node",
  "id": 6299186460,
  "lat": 5.4282328,
  "lon": -0.9587410,
  "tags": {
    "amenity": "pharmacy",
    "fixme": "check node locations"
  }
},
{
  "type": "node",
  "id": 6304067822,
  "lat": 6.1026149,
  "lon": -0.2510901,
  "tags": {
    "amenity": "place_of_worship;pharmacy",
    "name": "Church of Christ;Pharmacy"
  }
},
{
  "type": "node",
  "id": 6304073822,
  "lat": 6.0988795,
  "lon": -0.2526888,
  "tags": {
    "amenity": "pharmacy",
    "healthcare": "pharmacy",
    "name": "Gabson Pharmacy"
  }
},
{
  "type": "node",
  "id": 6305321317,
  "lat": 5.5601699,
  "lon": -0.2129584,
  "tags": {
    "amenity": "pharmacy",
    "name": "Osons Chemist"
  }
},
{
  "type": "node",
  "id": 6305336215,
  "lat": 5.7554668,
  "lon": -0.3289760,
  "tags": {
    "amenity": "clinic",
    "name": "Edith's Maternity Home"
  }
},
{
  "type": "node",
  "id": 6305746078,
  "lat": 5.6294492,
  "lon": -0.0906998,
  "tags": {
    "amenity": "pharmacy",
    "healthcare": "pharmacy",
    "name": "Ernest Chemist Limited"
  }
},
{
  "type": "node",
  "id": 6310119701,
  "lat": 6.0945611,
  "lon": -0.2564087,
  "tags": {
    "amenity": "pharmacy",
    "healthcare": "pharmacy",
    "name": "Amicus Pharmacy"
  }
},
{
  "type": "node",
  "id": 6312196221,
  "lat": 6.0822777,
  "lon": -0.2607538,
  "tags": {
    "amenity": "clinic",
    "name": "Dr Asomani Clinic"
  }
},
{
  "type": "node",
  "id": 6312202203,
  "lat": 6.0785084,
  "lon": -0.2690214,
  "tags": {
    "amenity": "clinic",
    "name": "Atekyem Medical Center"
  }
},
{
  "type": "node",
  "id": 6312866084,
  "lat": 5.5429511,
  "lon": -0.3350059,
  "tags": {
    "amenity": "clinic",
    "healthcare": "clinic",
    "name": "All Faith Clinic"
  }
},
{
  "type": "node",
  "id": 6313240309,
  "lat": 6.8038746,
  "lon": -2.5170995,
  "tags": {
    "addr:street": "Kofi Solo Avenue",
    "amenity": "pharmacy",
    "name": "Joe-Chris Pharmacy"
  }
},
{
  "type": "node",
  "id": 6314191642,
  "lat": 6.8039489,
  "lon": -2.5166680,
  "tags": {
    "addr:street": "Goaso High Street",
    "amenity": "pharmacy",
    "name": "Willidark Chemical"
  }
},
{
  "type": "node",
  "id": 6314371221,
  "lat": 5.6072496,
  "lon": -0.2569144,
  "tags": {
    "amenity": "pharmacy",
    "name": "Big Maron Pharmacy"
  }
},
{
  "type": "node",
  "id": 6319174597,
  "lat": 6.0944242,
  "lon": -0.2557173,
  "tags": {
    "amenity": "clinic",
    "healthcare": "clinic",
    "name": "Bonna O- A Memorial Clinic"
  }
},
{
  "type": "node",
  "id": 6319495675,
  "lat": 4.9278743,
  "lon": -1.7689029,
  "tags": {
    "amenity": "clinic",
    "healthcare": "clinic",
    "name": "Our Lady of Faith Clinic"
  }
},
{
  "type": "node",
  "id": 6324846586,
  "lat": 5.7388639,
  "lon": 0.1022608,
  "tags": {
    "amenity": "pharmacy",
    "name": "G & E Health Services"
  }
},
{
  "type": "node",
  "id": 6325471516,
  "lat": 5.7775789,
  "lon": -0.3002303,
  "tags": {
    "amenity": "clinic",
    "name": "Samsam Community Clinic"
  }
},
{
  "type": "node",
  "id": 6349309485,
  "lat": 5.6464443,
  "lon": -0.1550248,
  "tags": {
    "addr:street": "La Bawaleshi Road",
    "amenity": "pharmacy",
    "name": "Med Aid Pharmacy"
  }
},
{
  "type": "node",
  "id": 6349309785,
  "lat": 5.6464588,
  "lon": -0.1550017,
  "tags": {
    "addr:street": "La Bawaleshi Road",
    "amenity": "clinic",
    "name": "Inter-Star Eye Clinic",
    "phone": "0244850200"
  }
},
{
  "type": "node",
  "id": 6350580474,
  "lat": 5.5519379,
  "lon": -0.2039770,
  "tags": {
    "amenity": "pharmacy",
    "healthcare": "pharmacy",
    "level": "1",
    "name": "Grit Pharmacy"
  }
},
{
  "type": "node",
  "id": 6352298093,
  "lat": 5.6009615,
  "lon": -0.2307241,
  "tags": {
    "amenity": "pharmacy",
    "healthcare": "pharmacy",
    "name": "Robbie's Chemist",
    "phone": "0302242948"
  }
},
{
  "type": "node",
  "id": 6352738040,
  "lat": 5.6886522,
  "lon": -0.2858896,
  "tags": {
    "amenity": "clinic",
    "name": "St Moses Clinic"
  }
},
{
  "type": "node",
  "id": 6355598417,
  "lat": 6.4563910,
  "lon": -2.3224632,
  "tags": {
    "amenity": "pharmacy",
    "dispensing": "yes",
    "drive_through": "no",
    "healthcare": "pharmacy",
    "operator": "GhanaHealth Service"
  }
},
{
  "type": "node",
  "id": 6356087258,
  "lat": 5.5616954,
  "lon": -0.1725763,
  "tags": {
    "amenity": "clinic",
    "healthcare": "clinic",
    "name": "Acheampong Specialist Clinic"
  }
},
{
  "type": "node",
  "id": 6356540173,
  "lat": 6.8636138,
  "lon": -2.4477957,
  "tags": {
    "amenity": "pharmacy"
  }
},
{
  "type": "node",
  "id": 6356778208,
  "lat": 5.5507729,
  "lon": -0.1839564,
  "tags": {
    "amenity": "pharmacy",
    "name": "Jak Pharmacy"
  }
},
{
  "type": "node",
  "id": 6360017285,
  "lat": 5.3411207,
  "lon": -0.7516456,
  "tags": {
    "amenity": "clinic",
    "name": "Emergency Unit"
  }
},
{
  "type": "node",
  "id": 6362090188,
  "lat": 6.0950327,
  "lon": -0.2608543,
  "tags": {
    "amenity": "pharmacy",
    "name": "Eastern Chemists"
  }
},
{
  "type": "node",
  "id": 6369964730,
  "lat": 5.5765281,
  "lon": -0.2169455,
  "tags": {
    "amenity": "pharmacy",
    "check_date": "2023-05-03",
    "dispensing": "yes",
    "drive_through": "no",
    "healthcare": "pharmacy",
    "name": "A. O. Pharmacy",
    "wheelchair": "limited"
  }
},
{
  "type": "node",
  "id": 6371762886,
  "lat": 6.1174636,
  "lon": 1.1808043,
  "tags": {
    "amenity": "pharmacy",
    "name": "Verdi Pharmacy"
  }
},
{
  "type": "node",
  "id": 6372816494,
  "lat": 6.1060628,
  "lon": -0.2476063,
  "tags": {
    "amenity": "pharmacy",
    "name": "Skycare Pharmacy"
  }
},
{
  "type": "node",
  "id": 6373951542,
  "lat": 6.8050232,
  "lon": -2.5175124,
  "tags": {
    "addr:street": "Kofi Solo Avenue",
    "amenity": "pharmacy",
    "name": "Mabel Akyaa Waye"
  }
},